{"@context": {"@vocab": "http://www.semanticweb.org/ontologies/2021/2/school#", "@base": "http://www.semanticweb.org/ontologies/2021/2/school", "gid": "@id", "name": {"@id": "nom", "@type": "http://www.w3.org/2001/XMLSchema#string"}, "adresse": {"@id": "adresse", "@type": "http://www.w3.org/2001/XMLSchema#string"}, "commune": "Ville", "region": "Region", "latitude_y": {"@id": "Latitude", "@type": "http://www.w3.org/2001/XMLSchema#float"}, "longitude_x": {"@id": "Longitude", "@type": "http://www.w3.org/2001/XMLSchema#float"}, "records": {"@id": "_records", "@container": "@set"}}, "records": [{"nom": "CFAI du Dauphin\u00e9 (P\u00f4le formation des industries technologiques)", "adresse": "83 rue de Chatagnon", "commune": "Moirans", "region": "Auvergne-Rh\u00f4ne-Alpes", "longitude_x": 5.58905, "latitude_y": 45.319}, {"nom": "Centre de ressources, d'expertise et de performance sportive des Pays de la Loire", "adresse": "4 place Gabriel Trarieux", "commune": "Nantes", "region": "Pays de la Loire", "longitude_x": -1.52278, "latitude_y": 47.2269}, {"nom": "CFA Ducretet Rh\u00f4ne-Alpes", "adresse": "2 rue de la D\u00e9mocratie", "commune": "V\u00e9nissieux", "region": "Auvergne-Rh\u00f4ne-Alpes", "longitude_x": 4.88137, "latitude_y": 45.6942}, {"nom": "Institut de formation aux m\u00e9tiers de la sant\u00e9", "adresse": "1 rue Pierre Hallali", "commune": "Charleville-M\u00e9zi\u00e8res", "region": "Grand-Est", "longitude_x": 4.69512, "latitude_y": 49.7617}, {"nom": "Toulouse Business School", "adresse": "20 boulevard Lascrosses", "commune": "Toulouse", "region": "Occitanie", "longitude_x": 1.43211, "latitude_y": 43.6098}, {"nom": "Lyc\u00e9e Saint-Louis - Saint-Bruno", "adresse": "16 rue des Chartreux", "commune": "Lyon", "region": "Auvergne-Rh\u00f4ne-Alpes", "longitude_x": 4.82323, "latitude_y": 45.772}, {"nom": "Lyc\u00e9e Jacques Amyot", "adresse": "6 bis rue Edmond Michelet", "commune": "Melun", "region": "Ile-de-France", "longitude_x": 2.65958, "latitude_y": 48.5462}, {"nom": "Lyc\u00e9e Paul Vincensini", "adresse": "rue de la 4e DMM", "commune": "Bastia", "region": "Corse", "longitude_x": 9.44168, "latitude_y": 42.67}, {"nom": "Facult\u00e9 des sciences m\u00e9dicales et param\u00e9dicales", "adresse": "27 boulevard Jean Moulin", "commune": "Marseille", "region": "Provence-Alpes-C\u00f4te d'Azur", "longitude_x": 5.40053, "latitude_y": 43.2887}, {"nom": "Ecole nantaise sup\u00e9rieure d'enseignement commercial", "adresse": "1 place de la Bourse", "commune": "Nantes", "region": "Pays de la Loire", "longitude_x": -1.55885, "latitude_y": 47.2131}, {"nom": "ADERE Institut de formation en ergoth\u00e9rapie", "adresse": "52 rue Vitruve", "commune": "Paris", "region": "Ile-de-France", "longitude_x": 2.40522, "latitude_y": 48.8584}, {"nom": "IUT d'Evry (site Br\u00e9tigny - GTE)", "adresse": "Chemin de la Tuilerie", "commune": "Br\u00e9tigny-sur-Orge", "region": "Ile-de-France", "longitude_x": 2.308298, "latitude_y": 48.619561}, {"nom": "Lyc\u00e9e priv\u00e9 Carcado Saisseval", "adresse": "121 boulevard Raspail - CS 10622", "commune": "Paris", "region": "Ile-de-France", "longitude_x": 2.32883, "latitude_y": 48.8454}, {"nom": "CFA Les 13 Vents - EIMCL", "adresse": "51 boulevard de la lunade", "commune": "Tulle", "region": "Nouvelle-Aquitaine", "longitude_x": 1.78527, "latitude_y": 45.2681}, {"nom": "Projet professionnel plus", "adresse": "53 avenue G\u00e9n\u00e9ral de Gaulle", "commune": "Cayenne", "region": "Guyane", "longitude_x": -52.329215009396, "latitude_y": 4.93962835}, {"nom": "IUT de B\u00e9ziers", "adresse": "3 place du 14 juillet", "commune": "B\u00e9ziers", "region": "Occitanie", "longitude_x": 3.22417, "latitude_y": 43.3485}, {"nom": "Institut des carri\u00e8res europ\u00e9ennes de l'expertise", "adresse": "17 boulevard des Martyrs Nantais de la R\u00e9sistance", "commune": "Nantes", "region": "Pays de la Loire", "longitude_x": -1.54568, "latitude_y": 47.203}, {"nom": "Graduate School Sociologie et science politique", "adresse": "", "commune": "Saclay", "region": "Ile-de-France", "longitude_x": 2.1718, "latitude_y": 48.73}, {"nom": "Centre chor\u00e9graphique James Carl\u00e8s", "adresse": "51 bis rue des amidonniers", "commune": "Toulouse", "region": "Occitanie", "longitude_x": 1.4235707, "latitude_y": 43.606224}, {"nom": "IUT de Saint-Di\u00e9 des Vosges", "adresse": "11 rue de l'universit\u00e9", "commune": "Saint-Di\u00e9-des-Vosges", "region": "Grand-Est", "longitude_x": 6.94186, "latitude_y": 48.29}, {"nom": "Institut r\u00e9gional du travail social", "adresse": "1 rue Sully Brunet", "commune": "Saint-Beno\u00eet", "region": "La R\u00e9union", "longitude_x": 55.7148473, "latitude_y": -21.0329758}, {"nom": "Ecole nationale sup\u00e9rieure de cr\u00e9ation industrielle Les Ateliers", "adresse": "48 rue Saint Sabin", "commune": "Paris", "region": "Ile-de-France", "longitude_x": 2.36909, "latitude_y": 48.8586}, {"nom": "CFA Afanem", "adresse": "Place San Benedetto del Tronto", "commune": "Alfortville", "region": "Ile-de-France", "longitude_x": 2.42466, "latitude_y": 48.7865}, {"nom": "Lyc\u00e9e Madeleine Vionnet", "adresse": "1 rue Jules Guesde", "commune": "Bondy", "region": "Ile-de-France", "longitude_x": 2.47433, "latitude_y": 48.9043}, {"nom": "Institut d'\u00e9tudes des relations internationales", "adresse": "7-11 avenue des chasseurs", "commune": "Paris", "region": "Ile-de-France", "longitude_x": 2.2381665, "latitude_y": 48.883657}, {"nom": "Lyc\u00e9e Jean-Paul II-Annexe du lyc\u00e9e Notre-Dame de St-Germain-en-Laye", "adresse": "20 quai P Brunel", "commune": "Sartrouville", "region": "Ile-de-France", "longitude_x": 2.1715763, "latitude_y": 48.9510334}, {"nom": "Lyc\u00e9e g\u00e9n\u00e9ral Fran\u00e7ois Mitterrand", "adresse": "bd du Lyc\u00e9e", "commune": "Moissac", "region": "Occitanie", "longitude_x": 1.09297, "latitude_y": 44.1046}, {"nom": "Institut de formation en soins infirmiers Louis Pasteur", "adresse": "85 avenue de Fontresqui\u00e8res", "commune": "Bagnols-sur-C\u00e8ze", "region": "Occitanie", "longitude_x": 4.60786, "latitude_y": 44.1596}, {"nom": "Ecole sup\u00e9rieure des m\u00e9tiers des agences d'emploi", "adresse": "132 avenue De Lattre de Tassigny", "commune": "Angers", "region": "Pays de la Loire", "longitude_x": -0.537823, "latitude_y": 47.447321}, {"nom": "Arts et M\u00e9tiers Paris - centre d'Aix-en-Provence", "adresse": "2 cours des Arts et M\u00e9tiers", "commune": "Aix-en-Provence", "region": "Provence-Alpes-C\u00f4te d'Azur", "longitude_x": 5.455, "latitude_y": 43.5299}, {"nom": "Pigier performance", "adresse": "79 rue Christian Martinez", "commune": "N\u00eemes", "region": "Occitanie", "longitude_x": 4.3471676, "latitude_y": 43.8150783}, {"nom": "Supexam", "adresse": "34 rue des Planchettes", "commune": "Dijon", "region": "Bourgogne-Franche-Comt\u00e9", "longitude_x": 5.062376, "latitude_y": 47.3154816}, {"nom": "Cours Diderot", "adresse": "8 Port Saint-Sauveur", "commune": "Toulouse", "region": "Occitanie", "longitude_x": 1.45688, "latitude_y": 43.5953}, {"nom": "Ecole d'esth\u00e9tique cosm\u00e9tique et maquillage Gontard - El\u00e9gance", "adresse": "47 rue h\u00f4tel des postes", "commune": "Nice", "region": "Provence-Alpes-C\u00f4te d'Azur", "longitude_x": 7.27044, "latitude_y": 43.6991}, {"nom": "Ecole internationale Tunon", "adresse": "13 rue Martin Luther King", "commune": "Saint-Contest", "region": "Normandie", "longitude_x": -0.398033, "latitude_y": 49.2033}, {"nom": "Lyc\u00e9e Thiers", "adresse": "5 place du Lyc\u00e9e", "commune": "Marseille", "region": "Provence-Alpes-C\u00f4te d'Azur", "longitude_x": 5.38261, "latitude_y": 43.2969}, {"nom": "Lyc\u00e9e Clemenceau", "adresse": "46 avenue Georges Clemenceau", "commune": "Reims", "region": "Grand-Est", "longitude_x": 4.04633, "latitude_y": 49.2507}, {"nom": "Ecole d\u00e9partementale de th\u00e9\u00e2tre", "adresse": "1 rue du Bois Briand", "commune": "Evry-Courcouronnes", "region": "Ile-de-France", "longitude_x": 2.4778094, "latitude_y": 48.6110594}, {"nom": "Ecole internationale Tunon", "adresse": "4 chemin de la Chatterie", "commune": "Saint-Herblain", "region": "Pays de la Loire", "longitude_x": -1.61958, "latitude_y": 47.245}, {"nom": "Ecole sup\u00e9rieure de management et de gestion", "adresse": "16 avenue de l'Europe", "commune": "Schiltigheim", "region": "Grand-Est", "longitude_x": 7.71448, "latitude_y": 48.6122}, {"nom": "MAESTRIS", "adresse": "9bis rue de Roubaix", "commune": "Cambrai", "region": "Hauts-de-France", "longitude_x": 3.23807, "latitude_y": 50.181}, {"nom": "L'\u00e9cole des nouveaux m\u00e9tiers de la communication", "adresse": "142 rue Duguesclin", "commune": "Lyon", "region": "Auvergne-Rh\u00f4ne-Alpes", "longitude_x": 4.823592, "latitude_y": 45.779928}, {"nom": "Section d'enseignement professionnel du lyc\u00e9e h\u00f4tellerie et tourisme du Val de Loire", "adresse": "174 rue Albert 1er", "commune": "Blois", "region": "Centre-Val de Loire", "longitude_x": 1.30628, "latitude_y": 47.5715}, {"nom": "Maison familiale rurale de Granville", "adresse": "121 rue des Routils", "commune": "Granville", "region": "Normandie", "longitude_x": -1.56883, "latitude_y": 48.8319}, {"nom": "Lyc\u00e9e polyvalent h\u00f4telier Savoie L\u00e9man", "adresse": "40 boulevard Carnot", "commune": "Thonon-les-Bains", "region": "Auvergne-Rh\u00f4ne-Alpes", "longitude_x": 6.47514, "latitude_y": 46.3722}, {"nom": "Campus de Saint-Etienne de l'Institut d'Etudes Politiques de Lyon", "adresse": "77 rue Michelet", "commune": "Saint-Etienne", "region": "Auvergne-Rh\u00f4ne-Alpes", "longitude_x": 4.39165, "latitude_y": 45.4295}, {"nom": "Institut sup\u00e9rieur europ\u00e9en de formation par l'action", "adresse": "23 - 25 rue des Augustins", "commune": "Bordeaux", "region": "Nouvelle-Aquitaine", "longitude_x": -0.572026, "latitude_y": 44.8325}, {"nom": "Ecole nationale sup\u00e9rieure des arts de la marionnette", "adresse": "16 avenue Jean Jaur\u00e8s", "commune": "Charleville-M\u00e9zi\u00e8res", "region": "Grand-Est", "longitude_x": 4.72165, "latitude_y": 49.7725}, {"nom": "Ecole pour l'informatique et les techniques avanc\u00e9es - site de Rennes", "adresse": "19-22 boulevard Saint Conwo\u00efon", "commune": "Rennes", "region": "Bretagne", "longitude_x": -1.6885, "latitude_y": 48.1037}, {"nom": "SUP'DE COM \u00e9cole sup\u00e9rieure de communication", "adresse": "7 rue jean-Marie Leclair", "commune": "Lyon", "region": "Auvergne-Rh\u00f4ne-Alpes", "longitude_x": 4.8059821128845, "latitude_y": 45.770284537293}, {"nom": "CFA ISIFA", "adresse": "3 rue Vaud\u00e9tard", "commune": "Issy-les-Moulineaux", "region": "Ile-de-France", "longitude_x": 2.27662, "latitude_y": 48.8273}, {"nom": "CFA du pays de Montb\u00e9liard", "adresse": "Rue des Fr\u00e8res Lumi\u00e8re", "commune": "B\u00e9thoncourt", "region": "Bourgogne-Franche-Comt\u00e9", "longitude_x": 6.81061, "latitude_y": 47.538}, {"nom": "CFA Elevage", "adresse": "3 Les Landes", "commune": "Canappeville", "region": "Normandie", "longitude_x": 1.09895, "latitude_y": 49.157}, {"nom": "CFA CIPECMA", "adresse": "17 avenue du G\u00e9n\u00e9ral de Gaulle", "commune": "Ch\u00e2telaillon-Plage", "region": "Nouvelle-Aquitaine", "longitude_x": -1.08847, "latitude_y": 46.0812}, {"nom": "Chambre de commerce et d'industrie, P\u00f4le formation Campus pro", "adresse": "65 Rue du P\u00e8re Lafosse", "commune": "Saint-Pierre", "region": "La R\u00e9union", "longitude_x": 55.4848997, "latitude_y": -21.3285062}, {"nom": "Institut de formation en soins infirmiers du Centre hospitalier du sud Seine-et-Marne", "adresse": "55 boulevard Mar\u00e9chal Joffre", "commune": "Fontainebleau", "region": "Ile-de-France", "longitude_x": 2.69783, "latitude_y": 48.4121}, {"nom": "Studio ESCA (Ecole sup\u00e9rieure de com\u00e9diens par l'alternance)", "adresse": "3 rue Edmond Fantin", "commune": "Asni\u00e8res-sur-Seine", "region": "Ile-de-France", "longitude_x": 2.28974, "latitude_y": 48.9111}, {"nom": "Institut consulaire de formation d'Ajaccio", "adresse": "Route du Ricanto", "commune": "Ajaccio", "region": "Corse", "longitude_x": 8.77749, "latitude_y": 41.9269}, {"nom": "Graduate School \u00c9ducation, formation, enseignement", "adresse": "Espace Technologique - B\u00e2timent Discovery - Route de l'Orme aux Merisiers", "commune": "Saclay", "region": "Ile-de-France", "longitude_x": 2.1530199050903, "latitude_y": 48.710333893477}, {"nom": "CFA de l'industrie de Champagne Ardenne (site Haute-Marne)", "adresse": "4 rue de la Tambourine", "commune": "Saint-Dizier", "region": "Grand-Est", "longitude_x": 4.94361, "latitude_y": 48.6436}, {"nom": "Centre de pr\u00e9paration \u00e0 l'administration g\u00e9n\u00e9rale - Sciences Po Grenoble", "adresse": "1030 avenue centrale", "commune": "Saint-Martin-d'H\u00e8res", "region": "Auvergne-Rh\u00f4ne-Alpes", "longitude_x": 5.7711705, "latitude_y": 45.191768}, {"nom": "Cnam de Basse-Normandie", "adresse": "place Saint-Clair", "commune": "H\u00e9rouville-Saint-Clair", "region": "Normandie", "longitude_x": -0.3638879, "latitude_y": 49.1889714}, {"nom": "IUT de Ville d'Avray (Nanterre)", "adresse": "200 avenue de la R\u00e9publique", "commune": "Nanterre", "region": "Ile-de-France", "longitude_x": 2.20911, "latitude_y": 48.9048}, {"nom": "CFA agricole de la Vienne - site de Montmorillon", "adresse": "Ch\u00e2teau Ringuet", "commune": "Montmorillon", "region": "Nouvelle-Aquitaine", "longitude_x": 0.845276, "latitude_y": 46.4155}, {"nom": "Institut de formation en travail social - Croix-Rouge", "adresse": "71 chemin des Capelles", "commune": "Toulouse", "region": "Occitanie", "longitude_x": 1.38542, "latitude_y": 43.6054}, {"nom": "IUT d'Aix-Marseille - site de Digne-les-Bains", "adresse": "19 boulevard Saint-Jean Chrysostome", "commune": "Digne-les-Bains", "region": "Provence-Alpes-C\u00f4te d'Azur", "longitude_x": 6.22587, "latitude_y": 44.0903}, {"nom": "Lyc\u00e9e Georges de la Tour", "adresse": "5 rue de la Croix Saint-Claude", "commune": "Nancy", "region": "Grand-Est", "longitude_x": 6.13732, "latitude_y": 48.6911}, {"nom": "P\u00f4le Formation UIMM Rouen-Dieppe ( CFA de l'Industrie)", "adresse": "2 rue Charles Sch\u00e9rer", "commune": "Le Mesnil-Esnard", "region": "Normandie", "longitude_x": 1.14828, "latitude_y": 49.415}, {"nom": "Ecole d'ing\u00e9nieurs de l'universit\u00e9 de Toulon", "adresse": "avenue de l'Universit\u00e9", "commune": "Toulon", "region": "Provence-Alpes-C\u00f4te d'Azur", "longitude_x": 6.0124613491821, "latitude_y": 43.136381140337}, {"nom": "Campus Pasteur - UFR de M\u00e9decine", "adresse": "28 Avenue de Valombrose", "commune": "Nice", "region": "Provence-Alpes-C\u00f4te d'Azur", "longitude_x": 7.28056, "latitude_y": 43.7256}, {"nom": "Lyc\u00e9e Jehan de Beauce", "adresse": "20 rue du Commandant Chesne", "commune": "Chartres", "region": "Centre-Val de Loire", "longitude_x": 1.47381, "latitude_y": 48.4593}, {"nom": "Cit\u00e9 scolaire Monnet Fourneyron - Lyc\u00e9e Monnet Fourneyron - site Portail rouge", "adresse": "16 rue du Portail Rouge", "commune": "Saint-Etienne", "region": "Auvergne-Rh\u00f4ne-Alpes", "longitude_x": 4.41039, "latitude_y": 45.4169}, {"nom": "Ecole nationale sup\u00e9rieure de chimie de Lille", "adresse": "avenue Mendele\u00efev", "commune": "Villeneuve-d'Ascq", "region": "Hauts-de-France", "longitude_x": 3.14586, "latitude_y": 50.6091}, {"nom": "Lyc\u00e9e Sainte-Marie de Neuilly", "adresse": "24 boulevard Victor Hugo", "commune": "Neuilly-sur-Seine", "region": "Ile-de-France", "longitude_x": 2.28111, "latitude_y": 48.8853}, {"nom": "Lyc\u00e9e Notre-Dame de Bury", "adresse": "1 avenue Georges Pompidou", "commune": "Margency", "region": "Ile-de-France", "longitude_x": 2.28225, "latitude_y": 49.0029}, {"nom": "Grenoble Ecole de Management", "adresse": "64/70 rue du Ranelagh", "commune": "Paris", "region": "Ile-de-France", "longitude_x": 2.2727457, "latitude_y": 48.8552629}, {"nom": "Lyc\u00e9e Alfred Kastler", "adresse": "14 avenue de l'Universit\u00e9", "commune": "Talence", "region": "Nouvelle-Aquitaine", "longitude_x": -0.599101, "latitude_y": 44.8025}, {"nom": "Institut de formation en soins infirmiers", "adresse": "19 c\u00f4te de Saverne", "commune": "Saverne", "region": "Grand-Est", "longitude_x": 7.35156, "latitude_y": 48.7472}, {"nom": "Campus STAPS Sciences du Sport - Nice (06000)", "adresse": "261 boulevard du Mercantour", "commune": "Nice", "region": "Provence-Alpes-C\u00f4te d'Azur", "longitude_x": 7.1935, "latitude_y": 43.6922}, {"nom": "EJCAM antenne d'Aix-en-Provence", "adresse": "2 avenue Jules Isaac", "commune": "Aix-en-Provence", "region": "Provence-Alpes-C\u00f4te d'Azur", "longitude_x": 5.4509703, "latitude_y": 43.5323062}, {"nom": "Lyc\u00e9e des m\u00e9tiers des sciences et techniques de l'\u00e9lectricit\u00e9 et de la maintenance Jean Hanzelet", "adresse": "79 place de Trey", "commune": "Pont-\u00e0-Mousson", "region": "Grand-Est", "longitude_x": 6.05657, "latitude_y": 48.9093}, {"nom": "P\u00f4le formation UIMM Bourgogne 21-71", "adresse": "75 grande rue Saint-Cosme", "commune": "Chalon-sur-Sa\u00f4ne", "region": "Bourgogne-Franche-Comt\u00e9", "longitude_x": 4.84907, "latitude_y": 46.7772}, {"nom": "Institut national sup\u00e9rieur des sciences agronomiques, de l'alimentation et de l'environnement", "adresse": "26 boulevard Docteur Petitjean", "commune": "Dijon", "region": "Bourgogne-Franche-Comt\u00e9", "longitude_x": 5.06552, "latitude_y": 47.3112}, {"nom": "Lyc\u00e9e Vert d'Azur horticole et agricole", "adresse": "1285 avenue Jules Grec", "commune": "Antibes", "region": "Provence-Alpes-C\u00f4te d'Azur", "longitude_x": 7.11083, "latitude_y": 43.5986}, {"nom": "Ecole sup\u00e9rieure d'agricultures d'Angers", "adresse": "55 rue Rabelais", "commune": "Angers", "region": "Pays de la Loire", "longitude_x": -0.543943, "latitude_y": 47.4589}, {"nom": "B\u00e2timent CFA Bourgogne-Franche-Comt\u00e9  site de Dijon", "adresse": "48 rue du Fort de la Motte Giron", "commune": "Dijon", "region": "Bourgogne-Franche-Comt\u00e9", "longitude_x": 4.9912, "latitude_y": 47.3178}, {"nom": "Ecole sup\u00e9rieure d'ing\u00e9nieurs de Paris Est Cr\u00e9teil", "adresse": "71 rue Saint-Simon", "commune": "Cr\u00e9teil", "region": "Ile-de-France", "longitude_x": 2.443659, "latitude_y": 48.794966}, {"nom": "EXAouest formations", "adresse": "110 Boulevard de Cr\u00e9ac'h Gwen", "commune": "Quimper", "region": "Bretagne", "longitude_x": -4.12284, "latitude_y": 47.9788}, {"nom": "Institut de formation en soins infirmiers - h\u00f4pital Le Vinatier", "adresse": "95 boulevard Pinel", "commune": "Bron", "region": "Auvergne-Rh\u00f4ne-Alpes", "longitude_x": 4.8937, "latitude_y": 45.7394}, {"nom": "IUT de Perpignan antenne de Carcassonne", "adresse": "Domaine d'Auriac Avenue du Dr Suzanne No\u00ebl", "commune": "Carcassonne", "region": "Occitanie", "longitude_x": 2.34277, "latitude_y": 43.1889}, {"nom": "CFA CESI alternance", "adresse": "8 rue Isabelle Autissier", "commune": "Lagord", "region": "Nouvelle-Aquitaine", "longitude_x": -1.147667, "latitude_y": 46.184482}, {"nom": "Institut de formation en soins infirmiers - H\u00f4pitaux universitaires de Strasbourg", "adresse": "1 rue David Richard", "commune": "Strasbourg", "region": "Grand-Est", "longitude_x": 7.7869533, "latitude_y": 48.6029393}, {"nom": "Lyc\u00e9e Jacques de Vaucanson", "adresse": "1 rue Jules Vedrines", "commune": "Tours", "region": "Centre-Val de Loire", "longitude_x": 0.706583, "latitude_y": 47.4234}, {"nom": "Lyc\u00e9e polyvalent Camille Desmoulins", "adresse": "47 rue de la R\u00e9publique", "commune": "Le Cateau-Cambr\u00e9sis", "region": "Hauts-de-France", "longitude_x": 3.54166, "latitude_y": 50.1033}, {"nom": "Institut Nemo", "adresse": "40 bis rue de la colonie", "commune": "Paris", "region": "Ile-de-France", "longitude_x": 2.3119396, "latitude_y": 48.8208016}, {"nom": "Institut de formation en soins infirmiers H\u00f4pital de Cannes", "adresse": "15 avenue des Broussailles - CS 50008", "commune": "Cannes", "region": "Provence-Alpes-C\u00f4te d'Azur", "longitude_x": 7.00479, "latitude_y": 43.5626}, {"nom": "Antenne Vauban du CFA RAN", "adresse": "24 bis avenue Pauliani", "commune": "Nice", "region": "Provence-Alpes-C\u00f4te d'Azur", "longitude_x": 7.2791188, "latitude_y": 43.7038703}, {"nom": "UFR Sciences de l'information et de la communication - Ing\u00e9m\u00e9dia", "adresse": "70 avenue Roger Devoucoux", "commune": "Toulon", "region": "Provence-Alpes-C\u00f4te d'Azur", "longitude_x": 5.94028, "latitude_y": 43.1212}, {"nom": "IUT Nancy-Brabois - site de Lun\u00e9ville", "adresse": "6 rue du Colonel Clarenthal", "commune": "Lun\u00e9ville", "region": "Grand-Est", "longitude_x": 6.50104, "latitude_y": 48.5919}, {"nom": "\u00c9cole d'esth\u00e9tique de Biarritz", "adresse": "30 avenue de la Milady", "commune": "Biarritz", "region": "Nouvelle-Aquitaine", "longitude_x": -1.57095, "latitude_y": 43.4673}, {"nom": "Institut d'administration des entreprises", "adresse": "70 avenue Roger Devoucoux", "commune": "Toulon", "region": "Provence-Alpes-C\u00f4te d'Azur", "longitude_x": 5.94011, "latitude_y": 43.1213}, {"nom": "Institut sup\u00e9rieur d'optique de Toulouse", "adresse": "19 rue Bayard", "commune": "Toulouse", "region": "Occitanie", "longitude_x": 1.45, "latitude_y": 43.6041}, {"nom": "Lyc\u00e9e Externat Chavagnes", "adresse": "31 avenue Camus", "commune": "Nantes", "region": "Pays de la Loire", "longitude_x": -1.57304, "latitude_y": 47.2188}, {"nom": "Institut de formation en soins infirmiers-h\u00f4pital Emile Roux (AP)", "adresse": "1 avenue de Verdun", "commune": "Limeil-Br\u00e9vannes", "region": "Ile-de-France", "longitude_x": 2.48302, "latitude_y": 48.7503}, {"nom": "Lyc\u00e9e Jeanne d'Arc", "adresse": "15 boulevard Benoite Danesi", "commune": "Bastia", "region": "Corse", "longitude_x": 9.44416, "latitude_y": 42.6969}, {"nom": "Lyc\u00e9e professionnel Emile James", "adresse": "56 rue Emile James", "commune": "Etel", "region": "Bretagne", "longitude_x": -3.20413, "latitude_y": 47.6636}, {"nom": "Lyc\u00e9e g\u00e9n\u00e9ral et technologique priv\u00e9 Saint-Ambroise", "adresse": "2 rue Burdin", "commune": "Chamb\u00e9ry", "region": "Auvergne-Rh\u00f4ne-Alpes", "longitude_x": 5.92477, "latitude_y": 45.5706}, {"nom": "Lyc\u00e9e polyvalent Saint L\u00e9on", "adresse": "8 quai de l'Essonne", "commune": "Corbeil-Essonnes", "region": "Ile-de-France", "longitude_x": 2.4826, "latitude_y": 48.6092}, {"nom": "Lyc\u00e9e Sainte-Marie", "adresse": "4 mont\u00e9e Saint-Barth\u00e9lemy", "commune": "Lyon", "region": "Auvergne-Rh\u00f4ne-Alpes", "longitude_x": 4.82667, "latitude_y": 45.7656}, {"nom": "ADONIS", "adresse": "55 rue Baraban", "commune": "Lyon", "region": "Auvergne-Rh\u00f4ne-Alpes", "longitude_x": 4.85611, "latitude_y": 45.754}, {"nom": "CFA Promotrans Paris", "adresse": "7 rue Moncey", "commune": "Paris", "region": "Ile-de-France", "longitude_x": 2.3602259, "latitude_y": 48.9163177}, {"nom": "IUT d'Orl\u00e9ans", "adresse": "Rue d'Issoudun", "commune": "Orl\u00e9ans", "region": "Centre-Val de Loire", "longitude_x": 1.92624, "latitude_y": 47.8438}, {"nom": "Institut francophone de formation au cin\u00e9ma animalier de M\u00e9nigoute", "adresse": "La Grimaudi\u00e8re", "commune": "Les Ch\u00e2teliers", "region": "Nouvelle-Aquitaine", "longitude_x": -0.0938722, "latitude_y": 46.4985767}, {"nom": "Sup Tertiaire", "adresse": "32 rue du Paradis", "commune": "Paris", "region": "Ile-de-France", "longitude_x": 2.35154, "latitude_y": 48.8753}, {"nom": "Institut de formation en soins infirmiers C. Claudel - Centre hospitalier Victor Dupouy", "adresse": "69 rue du Lieut Colonel Prudhon", "commune": "Argenteuil", "region": "Ile-de-France", "longitude_x": 2.23512, "latitude_y": 48.9444}, {"nom": "Lyc\u00e9e Notre-Dame", "adresse": "29 boulevard Abb\u00e9 Duploye", "commune": "Toulon", "region": "Provence-Alpes-C\u00f4te d'Azur", "longitude_x": 5.95579, "latitude_y": 43.1278}, {"nom": "Institut de formation en soins infirmiers Croix-Rouge fran\u00e7aise - Antenne de Saint Jean de Monts", "adresse": "1 rue Henry Dunant", "commune": "Saint-Jean-de-Monts", "region": "Pays de la Loire", "longitude_x": -2.0331179, "latitude_y": 46.7925606}, {"nom": "Lyc\u00e9e Fran\u00e7ois Villon", "adresse": "10-16 avenue Marc Sangnier", "commune": "Paris", "region": "Ile-de-France", "longitude_x": 2.30581, "latitude_y": 48.8263}, {"nom": "Lyc\u00e9e Guillaume Apollinaire", "adresse": "29 bd Jean-Baptiste Verany", "commune": "Nice", "region": "Provence-Alpes-C\u00f4te d'Azur", "longitude_x": 7.28262, "latitude_y": 43.7154}, {"nom": "Lyc\u00e9e polyvalent IFOM", "adresse": "17 boulevard des Martyrs Nantais", "commune": "Nantes", "region": "Pays de la Loire", "longitude_x": -1.54568, "latitude_y": 47.203}, {"nom": "Institut de formation aux affaires et \u00e0 la gestion", "adresse": "47 rue Sergent Michel Berthet", "commune": "Lyon", "region": "Auvergne-Rh\u00f4ne-Alpes", "longitude_x": 4.80583, "latitude_y": 45.7685}, {"nom": "Institut de formation aux affaires et \u00e0 la gestion", "adresse": "16 boulevard du G\u00e9n\u00e9ral de Gaulle", "commune": "Nantes", "region": "Pays de la Loire", "longitude_x": -1.54055, "latitude_y": 47.2084}, {"nom": "Institut de formation aux affaires et \u00e0 la gestion", "adresse": "4 rue Paul Bernies", "commune": "Toulouse", "region": "Occitanie", "longitude_x": 1.413757, "latitude_y": 43.6108074}, {"nom": "Institut de formation en soins infirmiers du CH de Briey", "adresse": "31 avenue Albert de Briey", "commune": "Val de Briey", "region": "Grand-Est", "longitude_x": 5.93387, "latitude_y": 49.2591}, {"nom": "Lyc\u00e9e La Favorite", "adresse": "62 rue de la Favorite", "commune": "Lyon", "region": "Auvergne-Rh\u00f4ne-Alpes", "longitude_x": 4.80594, "latitude_y": 45.7565}, {"nom": "SUP' DE COM \u00e9cole sup\u00e9rieure de communication", "adresse": "5 boulevard du port d'aval", "commune": "Amiens", "region": "Hauts-de-France", "longitude_x": 2.29158, "latitude_y": 49.8985}, {"nom": "CCI Formation", "adresse": "52-74 rue Barth\u00e9l\u00e9my de Laffemas", "commune": "Valence", "region": "Auvergne-Rh\u00f4ne-Alpes", "longitude_x": 4.9139462000001, "latitude_y": 44.9166761}, {"nom": "Lyc\u00e9e Saint-Vincent", "adresse": "30 rue de Meaux", "commune": "Senlis", "region": "Hauts-de-France", "longitude_x": 2.58826, "latitude_y": 49.203}, {"nom": "Lyc\u00e9e Bahuet", "adresse": "41 bis avenue Edmond Michelet", "commune": "Brive-la-Gaillarde", "region": "Nouvelle-Aquitaine", "longitude_x": 1.53204, "latitude_y": 45.1451}, {"nom": "EI Cnam Grand Est - site de Nancy", "adresse": "4 avenue du Docteur Heydenreich", "commune": "Nancy", "region": "Grand-Est", "longitude_x": 6.1905062198639, "latitude_y": 48.68157544077}, {"nom": "Campus Valrose Sciences et Ing\u00e9nierie - EUR DS4H Digital Systems For Humans", "adresse": "08 avenue Valrose", "commune": "Nice", "region": "Provence-Alpes-C\u00f4te d'Azur", "longitude_x": 7.2675773778177, "latitude_y": 43.71701315}, {"nom": "Lyc\u00e9e professionnel h\u00f4telier de l'Hermitage", "adresse": "rue Jean Monnet", "commune": "Tain-l'Hermitage", "region": "Auvergne-Rh\u00f4ne-Alpes", "longitude_x": 4.85904, "latitude_y": 45.0696}, {"nom": "Institut des techniques d'ing\u00e9nieur de l'industrie, Provence Alpes C\u00f4te d'Azur", "adresse": "8 Chemin de Capeau", "commune": "Istres", "region": "Provence-Alpes-C\u00f4te d'Azur", "longitude_x": 4.967592, "latitude_y": 43.507914}, {"nom": "\u00c9cole sp\u00e9ciale des travaux publics du b\u00e2timent et de l'industrie", "adresse": "28 avenue du Pr\u00e9sident Wilson", "commune": "Cachan", "region": "Ile-de-France", "longitude_x": 2.3311045, "latitude_y": 48.7941718}, {"nom": "Lyc\u00e9e Dumont d'Urville", "adresse": "212 avenue Amiral Jaujard", "commune": "Toulon", "region": "Provence-Alpes-C\u00f4te d'Azur", "longitude_x": 5.93823, "latitude_y": 43.1172}, {"nom": "Centre de formation professionnelle et de promotion agricoles Les Sicaudi\u00e8res", "adresse": "Route de Nantes", "commune": "Bressuire", "region": "Nouvelle-Aquitaine", "longitude_x": -0.5139375, "latitude_y": 46.8408895}, {"nom": "Avignon Universit\u00e9", "adresse": "74 rue Louis Pasteur", "commune": "Avignon", "region": "Provence-Alpes-C\u00f4te d'Azur", "longitude_x": 4.8160548, "latitude_y": 43.9493405}, {"nom": "Lyc\u00e9e Louis Vincent", "adresse": "1 rue de Verdun", "commune": "Metz", "region": "Grand-Est", "longitude_x": 6.16809, "latitude_y": 49.1063}, {"nom": "Institut Toulousain d'Ost\u00e9opathie", "adresse": "90 rue du village d'entreprises b\u00e2timent 2", "commune": "Lab\u00e8ge", "region": "Occitanie", "longitude_x": 1.51024, "latitude_y": 43.5431}, {"nom": "UFR Sciences humaines", "adresse": "Place du Recteur Henri Le Moal", "commune": "Rennes", "region": "Bretagne", "longitude_x": -1.7023068, "latitude_y": 48.1175364}, {"nom": "Facult\u00e9 d'\u00e9conomie, gestion et AES", "adresse": "Avenue L\u00e9on Duguit", "commune": "Pessac", "region": "Nouvelle-Aquitaine", "longitude_x": -0.617863, "latitude_y": 44.797}, {"nom": "Institut national sup\u00e9rieur du professorat et de l'\u00e9ducation C\u00e9lestin Freinet (site de La Seyne-sur-Mer)", "adresse": "59 All\u00e9e Emile Pratali", "commune": "La Seyne-sur-Mer", "region": "Provence-Alpes-C\u00f4te d'Azur", "longitude_x": 5.890045, "latitude_y": 43.101422}, {"nom": "IUT Nice C\u00f4te d'Azur - Site de Cannes", "adresse": "230 avenue Francis Tonner", "commune": "Cannes", "region": "Provence-Alpes-C\u00f4te d'Azur", "longitude_x": 6.9599512, "latitude_y": 43.5501698}, {"nom": "Institut droit et \u00e9conomie de P\u00e9rigueux", "adresse": "Campus P\u00e9rigord", "commune": "P\u00e9rigueux", "region": "Nouvelle-Aquitaine", "longitude_x": 0.718816, "latitude_y": 45.1961}, {"nom": "UFR Sant\u00e9", "adresse": "117 rue du G\u00e9n\u00e9ral Ailleret", "commune": "Le Tampon", "region": "La R\u00e9union", "longitude_x": 55.503738, "latitude_y": -21.273207}, {"nom": "Centre europ\u00e9en d'enseignement et de recherche en \u00e9thique", "adresse": "22 rue Ren\u00e9 Descartes", "commune": "Strasbourg", "region": "Grand-Est", "longitude_x": 7.74782, "latitude_y": 48.5767}, {"nom": "IUT Grand Ouest Normandie - P\u00f4le d'Alen\u00e7on (campus de Damigny)", "adresse": "Montfoulon", "commune": "Damigny", "region": "Normandie", "longitude_x": 0.0627244, "latitude_y": 48.4436}, {"nom": "UFR des sciences \u00e9conomiques, de gestion, de g\u00e9ographie et d'am\u00e9nagement des territoires", "adresse": "Esplanade de la Paix", "commune": "Caen", "region": "Normandie", "longitude_x": -0.36395, "latitude_y": 49.1888}, {"nom": "Lyc\u00e9e g\u00e9n\u00e9ral et technologique Des Droits de l'Homme", "adresse": "Pointe \u00e0 Bacchus", "commune": "Petit-Bourg", "region": "Guadeloupe", "longitude_x": -61.593819, "latitude_y": 16.188629}, {"nom": "Lyc\u00e9e Sainte-Genevi\u00e8ve", "adresse": "2 rue de l'Ecole des Postes", "commune": "Versailles", "region": "Ile-de-France", "longitude_x": 2.15504, "latitude_y": 48.8026}, {"nom": "Institut national sup\u00e9rieur du professorat et de l'\u00e9ducation de Bretagne - site de Saint-Brieuc", "adresse": "1 rue Th\u00e9odule Ribot", "commune": "Saint-Brieuc", "region": "Bretagne", "longitude_x": -2.7767161, "latitude_y": 48.5163664}, {"nom": "Lyc\u00e9e professionnel priv\u00e9 Cluny Sainte-Suzanne", "adresse": "4 chemin des Trois Fr\u00e8res", "commune": "Sainte-Suzanne", "region": "La R\u00e9union", "longitude_x": 55.606527, "latitude_y": -20.907148}, {"nom": "BTP CFA de l'Indre", "adresse": "16 avenue Patureau-Francoeur", "commune": "Ch\u00e2teauroux", "region": "Centre-Val de Loire", "longitude_x": 1.70435, "latitude_y": 46.7867}, {"nom": "Ecole Pigier de Troyes", "adresse": "64 Mail des Charmilles", "commune": "Troyes", "region": "Grand-Est", "longitude_x": 4.08774, "latitude_y": 48.301}, {"nom": "ESSCA \u00e9cole de management", "adresse": "83 rue Lucien Faure", "commune": "Bordeaux", "region": "Nouvelle-Aquitaine", "longitude_x": -0.573292, "latitude_y": 44.8434}, {"nom": "Institut de formation en soins infirmiers du Centre hospitalier", "adresse": "8 cours du Danube", "commune": "Serris", "region": "Ile-de-France", "longitude_x": 2.780814, "latitude_y": 48.855936}, {"nom": "Ecole d'audioproth\u00e8se de la Facult\u00e9 des m\u00e9tiers", "adresse": "4 rue Claude Bourgelat - Javen\u00e9", "commune": "Foug\u00e8res", "region": "Bretagne", "longitude_x": -1.18941, "latitude_y": 48.3464}, {"nom": "Lyc\u00e9e polyvalent Jean Jacques Henner", "adresse": "20 rue de Hirtzbach", "commune": "Altkirch", "region": "Grand-Est", "longitude_x": 7.23283, "latitude_y": 47.6121}, {"nom": "Maison familiale rurale de Percy-en-Normandie", "adresse": "15 Rue Jean Lecouturier", "commune": "Percy-en-Normandie", "region": "Normandie", "longitude_x": -1.19308, "latitude_y": 48.9141}, {"nom": "IUT de Tarbes", "adresse": "1 rue Lautr\u00e9amont", "commune": "Tarbes", "region": "Occitanie", "longitude_x": 0.0481028, "latitude_y": 43.2275}, {"nom": "CFA du lyc\u00e9e Joseph Storck", "adresse": "24 rue Jules Ferry", "commune": "Guebwiller", "region": "Grand-Est", "longitude_x": 7.22875, "latitude_y": 47.9012}, {"nom": "Lyc\u00e9e polyvalent la Baugerie", "adresse": "38 boulevard des Pas Enchantes", "commune": "Saint-S\u00e9bastien-sur-Loire", "region": "Pays de la Loire", "longitude_x": -1.52077, "latitude_y": 47.2061}, {"nom": "Lyc\u00e9e polyvalent h\u00f4tellerie et tourisme d'Occitanie", "adresse": "1 rue de l'Abb\u00e9 Jules Lemire", "commune": "Toulouse", "region": "Occitanie", "longitude_x": 1.40486, "latitude_y": 43.5979}, {"nom": "Ligue Occitanie Pyr\u00e9n\u00e9es M\u00e9diterran\u00e9e de Tennis", "adresse": "348 route du Grau du Roi", "commune": "La Grande-Motte", "region": "Occitanie", "longitude_x": 4.0994507074356, "latitude_y": 43.559630067172}, {"nom": "Institut de formation en soins infirmiers - Centre hospitalier", "adresse": "AC Bourran rue de Copenhague", "commune": "Rodez", "region": "Occitanie", "longitude_x": 2.56988, "latitude_y": 44.3499}, {"nom": "Maison familiale rurale de Cerisy-Belle-Etoile", "adresse": "Le Bourg", "commune": "Cerisy-Belle-Etoile", "region": "Normandie", "longitude_x": -0.6507635, "latitude_y": 48.7783094}, {"nom": "CFA de la Chambre de m\u00e9tiers et de l'artisanat de la Charente - site de Cognac", "adresse": "41 rue du Repos", "commune": "Cognac", "region": "Nouvelle-Aquitaine", "longitude_x": -0.3436655, "latitude_y": 45.6930293}, {"nom": "Institut de formation en soins infirmiers - Centre hospitalier", "adresse": "Avenue du 8 Mai 1945", "commune": "Mende", "region": "Occitanie", "longitude_x": 3.49254, "latitude_y": 44.5219}, {"nom": "Lyc\u00e9e Jules Ferry", "adresse": "77 boulevard de Clichy", "commune": "Paris", "region": "Ile-de-France", "longitude_x": 2.32909, "latitude_y": 48.8841}, {"nom": "IUT de Perpignan", "adresse": "Chemin de la Passio Viella", "commune": "Perpignan", "region": "Occitanie", "longitude_x": 2.89855, "latitude_y": 42.6825}, {"nom": "Lyc\u00e9e agricole Philippe de Vilmorin de la Meuse (Site de Bar-le-Duc)", "adresse": "Technop\u00f4le Philippe de Vilmorin", "commune": "Bar-le-Duc", "region": "Grand-Est", "longitude_x": 5.18492, "latitude_y": 48.7618}, {"nom": "ADES P\u00f4le Formation Sanitaire et Social", "adresse": "All\u00e9e des tabacs", "commune": "Marmande", "region": "Nouvelle-Aquitaine", "longitude_x": 0.1755031, "latitude_y": 44.4968306}, {"nom": "IPAG Business School", "adresse": "184 boulevard Saint Germain", "commune": "Paris", "region": "Ile-de-France", "longitude_x": 2.33121, "latitude_y": 48.8544}, {"nom": "Institut national sup\u00e9rieur du professorat et de l'\u00e9ducation (site de Lons)", "adresse": "23 rue des Ecoles", "commune": "Lons-le-Saunier", "region": "Bourgogne-Franche-Comt\u00e9", "longitude_x": 5.5468549, "latitude_y": 46.6727895}, {"nom": "IUT de Paris Diderot (site Pajol)", "adresse": "20 quater rue du D\u00e9partement", "commune": "Paris", "region": "Ile-de-France", "longitude_x": 2.356884, "latitude_y": 48.844877}, {"nom": "CFA AFORP - site de Mantes-la-Ville", "adresse": "6 rue Cam\u00e9linat", "commune": "Mantes-la-Ville", "region": "Ile-de-France", "longitude_x": 1.70849, "latitude_y": 48.982}, {"nom": "Institut national des formations notariales", "adresse": "P\u00f4le tertiaire 26 av L\u00e9on Blum", "commune": "Clermont-Ferrand", "region": "Auvergne-Rh\u00f4ne-Alpes", "longitude_x": 3.09356, "latitude_y": 45.7699}, {"nom": "Ecole nationale sup\u00e9rieure de techniques avanc\u00e9es Bretagne", "adresse": "2 rue Fran\u00e7ois Verny", "commune": "Brest", "region": "Bretagne", "longitude_x": -4.47173, "latitude_y": 48.4191}, {"nom": "Lyc\u00e9e Edgar Quinet", "adresse": "5 avenue Jean-Marie Verne", "commune": "Bourg-en-Bresse", "region": "Auvergne-Rh\u00f4ne-Alpes", "longitude_x": 5.22642, "latitude_y": 46.1974}, {"nom": "Centre universitaire d\u00e9partemental - antenne de l'universit\u00e9 de Nantes", "adresse": "18 boulevard Gaston Deferre-cs50020", "commune": "La Roche-sur-Yon", "region": "Pays de la Loire", "longitude_x": -1.40688, "latitude_y": 46.6779}, {"nom": "Lyc\u00e9e priv\u00e9 Sainte-Solange", "adresse": "59 place de la Gare", "commune": "Ch\u00e2teauroux", "region": "Centre-Val de Loire", "longitude_x": 1.69845, "latitude_y": 46.8105}, {"nom": "Universit\u00e9 de Corse", "adresse": "7 avenue Jean Nicoli", "commune": "Corte", "region": "Corse", "longitude_x": 9.1535, "latitude_y": 42.299929}, {"nom": "UFR Histoire, arts et arch\u00e9ologie Toulouse UT2J - Antenne de Cahors", "adresse": "273 avenue Henri Martin", "commune": "Cahors", "region": "Occitanie", "longitude_x": 1.44637, "latitude_y": 44.4525}, {"nom": "UFR des sciences exactes et exp\u00e9rimentales", "adresse": "52 avenue Paul Alduy", "commune": "Perpignan", "region": "Occitanie", "longitude_x": 2.89855, "latitude_y": 42.6841}, {"nom": "Facult\u00e9 des sciences du sport - Antenne de Gap", "adresse": "5 rue Bayard", "commune": "Gap", "region": "Provence-Alpes-C\u00f4te d'Azur", "longitude_x": 6.0788, "latitude_y": 44.5626}, {"nom": "Universit\u00e9 de technologie de Belfort-Montb\u00e9liard", "adresse": "Universit\u00e9 de technologie", "commune": "Belfort", "region": "Bourgogne-Franche-Comt\u00e9", "longitude_x": 6.8456621, "latitude_y": 47.6420533}, {"nom": "Lyc\u00e9e Sainte-Marie", "adresse": "2 rue de l'Abbaye", "commune": "Antony", "region": "Ile-de-France", "longitude_x": 2.29902, "latitude_y": 48.7538}, {"nom": "Lyc\u00e9e Saint-Joseph", "adresse": "13 A rue de la Lib\u00e9ration", "commune": "Ch\u00e2teaubriant", "region": "Pays de la Loire", "longitude_x": -1.37678, "latitude_y": 47.7154}, {"nom": "Institut de formation en soins infirmiers du Centre hospitalier L\u00e9on-Binet", "adresse": "Route de Chalautre-la Petite", "commune": "Provins", "region": "Ile-de-France", "longitude_x": 3.30204, "latitude_y": 48.5455}, {"nom": "CFA Facult\u00e9 des m\u00e9tiers de l'Essonne - site d'Evry", "adresse": "3 chemin de la Grange Feu Louis", "commune": "Evry-Courcouronnes", "region": "Ile-de-France", "longitude_x": 2.45731, "latitude_y": 48.6226}, {"nom": "Lyc\u00e9e Louise Michel", "adresse": "11 boulevard du Midi", "commune": "Nanterre", "region": "Ile-de-France", "longitude_x": 2.19358, "latitude_y": 48.8894}, {"nom": "Institut de formation en soins infirmiers Bertrand Schwartz - IFAS", "adresse": "Centre hospitalier", "commune": "Pr\u00e9montr\u00e9", "region": "Hauts-de-France", "longitude_x": 3.4138776, "latitude_y": 49.5403369}, {"nom": "Fondation EFOM Boris Dolto", "adresse": "118 bis rue de Javel", "commune": "Paris", "region": "Ile-de-France", "longitude_x": 2.28727, "latitude_y": 48.8434}, {"nom": "Lyc\u00e9e Auguste Blanqui", "adresse": "54 rue Charles Schmidt", "commune": "Saint-Ouen", "region": "Ile-de-France", "longitude_x": 2.33327, "latitude_y": 48.9033}, {"nom": "Universit\u00e9 R\u00e9gionale des M\u00e9tiers et de l'Artisanat", "adresse": "Avenue Gimart", "commune": "Saint-Denis", "region": "La R\u00e9union", "longitude_x": 55.475635528564, "latitude_y": -20.892013160099}, {"nom": "Institut de formation en soins infirmiers, aides-soignants et auxiliaires de pu\u00e9riculture", "adresse": "40 avenue L\u00e9on Blum", "commune": "Beauvais", "region": "Hauts-de-France", "longitude_x": 2.06832, "latitude_y": 49.448}, {"nom": "Lyc\u00e9e Paul Eluard", "adresse": "15 avenue Jean Moulin", "commune": "Saint-Denis", "region": "Ile-de-France", "longitude_x": 2.36449, "latitude_y": 48.9413}, {"nom": "Institut national des formations notariales", "adresse": "2 rue des Juifs", "commune": "Strasbourg", "region": "Grand-Est", "longitude_x": 7.75144, "latitude_y": 48.5827}, {"nom": "Plus Values site Paris Ouest", "adresse": "230 rue du faubourg Saint-Honor\u00e9", "commune": "Paris", "region": "Ile-de-France", "longitude_x": 2.30303, "latitude_y": 48.876}, {"nom": "Centre de formation Comet", "adresse": "319 route de Vannes", "commune": "Saint-Herblain", "region": "Pays de la Loire", "longitude_x": -1.6040733, "latitude_y": 47.2459077}, {"nom": "Ecole IPSSI", "adresse": "25 rue Claude Tillier", "commune": "Paris", "region": "Ile-de-France", "longitude_x": 2.38841, "latitude_y": 48.8485}, {"nom": "Pigier cr\u00e9ation", "adresse": "79 rue Christian Martinez", "commune": "N\u00eemes", "region": "Occitanie", "longitude_x": 4.360054, "latitude_y": 43.836699}, {"nom": "Institut sup\u00e9rieur de formation de l'enseignement catholique - ISFEC des Alpes", "adresse": "15 rue de la Tuilerie", "commune": "Seyssinet-Pariset", "region": "Auvergne-Rh\u00f4ne-Alpes", "longitude_x": 5.689422, "latitude_y": 45.170782}, {"nom": "European Communication School", "adresse": "9 rue Lekain", "commune": "Paris", "region": "Ile-de-France", "longitude_x": 2.2782285, "latitude_y": 48.8565406}, {"nom": "Cnam - \u00c9cole nationale du jeu et des m\u00e9dias interactifs num\u00e9riques", "adresse": "138 rue de Bordeaux", "commune": "Angoul\u00eame", "region": "Nouvelle-Aquitaine", "longitude_x": 0.149824, "latitude_y": 45.6534}, {"nom": "European school of animal osteopathy", "adresse": "4-10 rue de la gare", "commune": "Lisieux", "region": "Normandie", "longitude_x": 0.22922, "latitude_y": 49.139674}, {"nom": "Lyc\u00e9e polyvalent priv\u00e9 Robin", "adresse": "place Saint-Pierre", "commune": "Vienne", "region": "Auvergne-Rh\u00f4ne-Alpes", "longitude_x": 4.87088, "latitude_y": 45.5234}, {"nom": "Lyc\u00e9e agricole de Coutances", "adresse": "Rue de Regn\u00e9ville sur Mer", "commune": "Coutances", "region": "Normandie", "longitude_x": -1.45519, "latitude_y": 49.0442}, {"nom": "Lyc\u00e9e technique priv\u00e9 les Mandailles", "adresse": "18 rue du Stade", "commune": "Ch\u00e2teauneuf-de-Galaure", "region": "Auvergne-Rh\u00f4ne-Alpes", "longitude_x": 4.95227, "latitude_y": 45.2274}, {"nom": "IUT de Bordeaux - Site d'Agen", "adresse": "Campus Michel Serres", "commune": "Agen", "region": "Nouvelle-Aquitaine", "longitude_x": 0.623531, "latitude_y": 44.186}, {"nom": "American University of Paris", "adresse": "102 rue Saint Dominique", "commune": "Paris", "region": "Ile-de-France", "longitude_x": 2.31051, "latitude_y": 48.8616}, {"nom": "Ecole sup\u00e9rieure de communication", "adresse": "684 avenue du club hippique", "commune": "Aix-en-Provence", "region": "Provence-Alpes-C\u00f4te d'Azur", "longitude_x": 5.42792, "latitude_y": 43.5137}, {"nom": "Ecole sup\u00e9rieure de g\u00e9nie informatique - R\u00e9seau GES", "adresse": "242 rue du Faubourg Saint-Antoine", "commune": "Paris", "region": "Ile-de-France", "longitude_x": 2.38372, "latitude_y": 48.878121}, {"nom": "\u00c9cole sup\u00e9rieure d'informatique de la M\u00e9diterran\u00e9e", "adresse": "26 rue John Maynard Keynes", "commune": "Marseille", "region": "Provence-Alpes-C\u00f4te d'Azur", "longitude_x": 5.43523, "latitude_y": 43.3432}, {"nom": "Maison familiale rurale de Balleroy-sur-Dr\u00f4me", "adresse": "81 rue des Forges", "commune": "Balleroy-sur-Dr\u00f4me", "region": "Normandie", "longitude_x": -0.842279, "latitude_y": 49.1831}, {"nom": "Institut catholique d'arts et m\u00e9tiers - site de Paris-S\u00e9nart - ICAM apprentissage", "adresse": "34 points de vue", "commune": "Lieusaint", "region": "Ile-de-France", "longitude_x": 2.551107, "latitude_y": 48.631195}, {"nom": "Ecole sant\u00e9 social Sud-Est", "adresse": "20 rue de la Claire", "commune": "Lyon", "region": "Auvergne-Rh\u00f4ne-Alpes", "longitude_x": 4.80558, "latitude_y": 45.7798}, {"nom": "Lyc\u00e9e Charles de Gaulle", "adresse": "38 rue Robespierre", "commune": "S\u00e8te", "region": "Occitanie", "longitude_x": 3.68082, "latitude_y": 43.4107}, {"nom": "IUT Nancy-Brabois - site de Brabois", "adresse": "9 avenue de la For\u00eat de Haye", "commune": "Vandoeuvre-l\u00e8s-Nancy", "region": "Grand-Est", "longitude_x": 6.14882, "latitude_y": 48.6511}, {"nom": "UFR des sciences et techniques des activit\u00e9s physiques et sportives", "adresse": "All\u00e9e Paschal Grousset", "commune": "Amiens", "region": "Hauts-de-France", "longitude_x": 2.266874, "latitude_y": 49.872845}, {"nom": "CFA couverture plomberie", "adresse": "Place San Benedetto Del Tronto", "commune": "Alfortville", "region": "Ile-de-France", "longitude_x": 2.42466, "latitude_y": 48.7865}, {"nom": "UFR 4 des sciences sociales, des organisations et des institutions", "adresse": "Route de Mende", "commune": "Montpellier", "region": "Occitanie", "longitude_x": 3.86989, "latitude_y": 43.6339}, {"nom": "Progress Sant\u00e9", "adresse": "15-17 rue Louis Blanc", "commune": "Paris", "region": "Ile-de-France", "longitude_x": 2.36828, "latitude_y": 48.8793}, {"nom": "Graduate School Economics & Management", "adresse": "Espace Technologique - B\u00e2timent Discovery - Route de l'Orme aux Merisiers", "commune": "Saclay", "region": "Ile-de-France", "longitude_x": 2.1532742, "latitude_y": 48.7104784}, {"nom": "LP Turquetil", "adresse": "18 passage Turquetil", "commune": "Paris", "region": "Ile-de-France", "longitude_x": 2.39283, "latitude_y": 48.8522}, {"nom": "Lyc\u00e9e Honor\u00e9 d'Urf\u00e9", "adresse": "1 impasse le Chatelier", "commune": "Saint-Etienne", "region": "Auvergne-Rh\u00f4ne-Alpes", "longitude_x": 4.38937, "latitude_y": 45.4144}, {"nom": "Lyc\u00e9e Langevin Wallon", "adresse": "126 avenue Roger Salengro", "commune": "Champigny-sur-Marne", "region": "Ile-de-France", "longitude_x": 2.49748, "latitude_y": 48.8164}, {"nom": "D\u00e9partement universitaire des sciences d'Agen", "adresse": "Avenue Michel Serres", "commune": "Agen", "region": "Nouvelle-Aquitaine", "longitude_x": 0.625565, "latitude_y": 44.1856}, {"nom": "Institut de formation en soins infirmiers h\u00f4pital Abel Leblanc", "adresse": "avenue Victor Hugo", "commune": "Coulommiers", "region": "Ile-de-France", "longitude_x": 3.09636, "latitude_y": 48.8247}, {"nom": "Centre g\u00e9rontologique d\u00e9partemental 13 - Institut de Formation en Soins Infirmiers", "adresse": "176 Avenue de Montolivet", "commune": "Marseille", "region": "Provence-Alpes-C\u00f4te d'Azur", "longitude_x": 5.409817, "latitude_y": 43.3112576}, {"nom": "Lyc\u00e9e polyvalent Le Corbusier", "adresse": "15 rue Lixenbuhl", "commune": "Illkirch-Graffenstaden", "region": "Grand-Est", "longitude_x": 7.72386, "latitude_y": 48.5289}, {"nom": "Ecole internationale transport et logistique-groupe PROMOTRANS", "adresse": "Espace John Hadley", "commune": "Villeneuve-d'Ascq", "region": "Hauts-de-France", "longitude_x": 3.15156, "latitude_y": 50.6097}, {"nom": "Arts et M\u00e9tiers Paris - centre de Chalon-sur-Sa\u00f4ne", "adresse": "2 rue Thomas Dumorey", "commune": "Chalon-sur-Sa\u00f4ne", "region": "Bourgogne-Franche-Comt\u00e9", "longitude_x": 4.8585553, "latitude_y": 46.7735951}, {"nom": "Facult\u00e9 de droit et science politique - site de Saint-Brieuc", "adresse": "2 avenue Antoine Mazier", "commune": "Saint-Brieuc", "region": "Bretagne", "longitude_x": -2.74154, "latitude_y": 48.5138}, {"nom": "ISEG - Digital Marketing and Communication School", "adresse": "85 rue du Jardin public", "commune": "Bordeaux", "region": "Nouvelle-Aquitaine", "longitude_x": -0.574913, "latitude_y": 44.8535}, {"nom": "Lyc\u00e9e Charles Fran\u00e7ois Lebrun", "adresse": "2 rue du Lyc\u00e9e", "commune": "Coutances", "region": "Normandie", "longitude_x": -1.44369, "latitude_y": 49.0453}, {"nom": "\u00c9cole de sages-femmes - CHU de Poitiers", "adresse": "2 rue de la Mil\u00e9trie", "commune": "Poitiers", "region": "Nouvelle-Aquitaine", "longitude_x": 0.384279, "latitude_y": 46.557}, {"nom": "UFR droit \u00e9conomie gestion", "adresse": "54 boulevard Desgranges", "commune": "Sceaux", "region": "Ile-de-France", "longitude_x": 2.2850167751312, "latitude_y": 48.781546646433}, {"nom": "Facult\u00e9 des sciences du sport", "adresse": "30 rue du Jardin Botanique", "commune": "Villers-l\u00e8s-Nancy", "region": "Grand-Est", "longitude_x": 6.15668, "latitude_y": 48.6674}, {"nom": "IRFSS - Croix-Rouge Social (Antenne d'Albi)", "adresse": "1 bis rue Lavazi\u00e8re", "commune": "Albi", "region": "Occitanie", "longitude_x": 2.148583564418, "latitude_y": 43.91734444849}, {"nom": "Institut de formation en soins infirmiers", "adresse": "23 avenue Pasteur", "commune": "S\u00e9lestat", "region": "Grand-Est", "longitude_x": 7.43547, "latitude_y": 48.2631}, {"nom": "CFA CAMAS", "adresse": "7 impasse Nic\u00e9phore Ni\u00e8pce", "commune": "Tremblay-en-France", "region": "Ile-de-France", "longitude_x": 2.5717, "latitude_y": 48.9673}, {"nom": "CFAI M\u00e9cavenir", "adresse": "12 bis rue des Pavillons", "commune": "Puteaux", "region": "Ile-de-France", "longitude_x": 2.24312, "latitude_y": 48.8825}, {"nom": "UFR de m\u00e9decine-Institut d'ing\u00e9nierie de la sant\u00e9 2IS", "adresse": "1 rue des Louvels", "commune": "Amiens", "region": "Hauts-de-France", "longitude_x": 2.2927988, "latitude_y": 49.8909794}, {"nom": "UFR des sciences de sant\u00e9", "adresse": "7 boulevard Jeanne d'Arc", "commune": "Dijon", "region": "Bourgogne-Franche-Comt\u00e9", "longitude_x": 5.06608, "latitude_y": 47.3195}, {"nom": "Institut de formation en soins infirmiers - Institut de formation d'aides-soignants", "adresse": "1 avenue Pierre de Coubertin", "commune": "Sens", "region": "Bourgogne-Franche-Comt\u00e9", "longitude_x": 3.29975, "latitude_y": 48.1939}, {"nom": "Lyc\u00e9e technologique priv\u00e9 De La Salle", "adresse": "11 boulevard Clemenceau", "commune": "Castres", "region": "Occitanie", "longitude_x": 2.23527, "latitude_y": 43.6077}, {"nom": "Institut de formation en soins infirmiers de Sambre Avesnois", "adresse": "13 boulevard Pasteur", "commune": "Maubeuge", "region": "Hauts-de-France", "longitude_x": 3.955481, "latitude_y": 50.2774209}, {"nom": "UFR Arts et sciences humaines", "adresse": "1281 avenue centrale", "commune": "Saint-Martin-d'H\u00e8res", "region": "Auvergne-Rh\u00f4ne-Alpes", "longitude_x": 5.76612, "latitude_y": 45.1918}, {"nom": "CFA agricole la Lande de la Rencontre", "adresse": "Lande de la Rencontre", "commune": "Saint-Aubin-du-Cormier", "region": "Bretagne", "longitude_x": -1.42648, "latitude_y": 48.2686}, {"nom": "Institut catholique d'arts et m\u00e9tiers - site de Vend\u00e9e - ICAM apprentissage", "adresse": "28 boulevard d'Angleterre", "commune": "La Roche-sur-Yon", "region": "Pays de la Loire", "longitude_x": -1.42695, "latitude_y": 46.6761}, {"nom": "Institut r\u00e9gional de d\u00e9veloppement du travail social en Guyane", "adresse": "Chemin rural du Centre M\u00e9dico-sportif", "commune": "Cayenne", "region": "Guyane", "longitude_x": -52.33033, "latitude_y": 4.93461}, {"nom": "CFA de l'Institut National Sup\u00e9rieur des Technologies avanc\u00e9es en informatique et comptabilit\u00e9", "adresse": "12 rue de Cl\u00e9ry", "commune": "Paris", "region": "Ile-de-France", "longitude_x": 2.37432, "latitude_y": 48.8672}, {"nom": "Lyc\u00e9e Pierre Mend\u00e8s France", "adresse": "11 avenue de l'Europe", "commune": "Savigny-le-Temple", "region": "Ile-de-France", "longitude_x": 2.57648, "latitude_y": 48.5965}, {"nom": "CFA du b\u00e2timent - Tulle", "adresse": "61 Boulevard de la Lunade", "commune": "Tulle", "region": "Nouvelle-Aquitaine", "longitude_x": 1.78393, "latitude_y": 45.269}, {"nom": "Facult\u00e9 arts, lettres, langues, sciences humaines - antenne d'Arles", "adresse": "Espace Van Gogh", "commune": "Arles", "region": "Provence-Alpes-C\u00f4te d'Azur", "longitude_x": 4.62593, "latitude_y": 43.6758}, {"nom": "Instituts de formations param\u00e9dicales du Centre hospitalier Edmond Garcin d'Aubagne", "adresse": "35 avenue des Soeurs Gastine", "commune": "Aubagne", "region": "Provence-Alpes-C\u00f4te d'Azur", "longitude_x": 5.56301, "latitude_y": 43.2925}, {"nom": "Universit\u00e9 Bretagne-Sud", "adresse": "27 rue Armand Guillemot", "commune": "Lorient", "region": "Bretagne", "longitude_x": -3.38882, "latitude_y": 47.7439}, {"nom": "CFA des travaux publics de PACA", "adresse": "Pont Royal Route d'Alleins", "commune": "Mallemort", "region": "Provence-Alpes-C\u00f4te d'Azur", "longitude_x": 5.18649, "latitude_y": 43.7098}, {"nom": "Institut corse de formation et recherche en travail social, m\u00e9dico-social et sanitaire", "adresse": "2 Chemin de L'Annonciade", "commune": "Bastia", "region": "Corse", "longitude_x": 9.44887, "latitude_y": 42.7027}, {"nom": "Institut sup\u00e9rieur d'optique de Lyon", "adresse": "9 avenue Leclerc", "commune": "Lyon", "region": "Auvergne-Rh\u00f4ne-Alpes", "longitude_x": 4.83289, "latitude_y": 45.7465}, {"nom": "Ecole technique priv\u00e9e Epseco", "adresse": "7 avenue de Verdun", "commune": "Valence", "region": "Auvergne-Rh\u00f4ne-Alpes", "longitude_x": 4.89727, "latitude_y": 44.9379}, {"nom": "Institut de formation en soins infirmiers - H\u00f4pital Foch", "adresse": "11 rue Guillaume Lenoir", "commune": "Suresnes", "region": "Ile-de-France", "longitude_x": 2.22006, "latitude_y": 48.8719}, {"nom": "Lyc\u00e9e Fr\u00e9deric Mistral", "adresse": "7-9 rue Fr\u00e9deric Mistral", "commune": "Fresnes", "region": "Ile-de-France", "longitude_x": 2.32871, "latitude_y": 48.7612}, {"nom": "Institut catholique d'arts et m\u00e9tiers - site de Lille - ICAM ouvert", "adresse": "6 rue Auber", "commune": "Lille", "region": "Hauts-de-France", "longitude_x": 3.04174, "latitude_y": 50.6302}, {"nom": "CFA du LP Roosevelt", "adresse": "18 rue de la Tour du Diable", "commune": "Mulhouse", "region": "Grand-Est", "longitude_x": 7.33063, "latitude_y": 47.7432}, {"nom": "Lyc\u00e9e g\u00e9n\u00e9ral et technologique Cl\u00e9ment Ader", "adresse": "76 rue Georges Clemenceau", "commune": "Tournan-en-Brie", "region": "Ile-de-France", "longitude_x": 2.74956, "latitude_y": 48.7428}, {"nom": "Lyc\u00e9e Younoussa Bamana", "adresse": "", "commune": "Mamoudzou", "region": "Mayotte", "longitude_x": 45.212608, "latitude_y": -12.7794}, {"nom": "Facult\u00e9 des sciences du sport", "adresse": "14 rue Descartes", "commune": "Strasbourg", "region": "Grand-Est", "longitude_x": 7.76265, "latitude_y": 48.5782}, {"nom": "Lyc\u00e9e priv\u00e9 Charles P\u00e9guy", "adresse": "80 avenue Parmentier", "commune": "Paris", "region": "Ile-de-France", "longitude_x": 2.37539, "latitude_y": 48.8644}, {"nom": "Institut sup\u00e9rieur d'optique de Nancy", "adresse": "13-15 boulevard Joffre", "commune": "Nancy", "region": "Grand-Est", "longitude_x": 6.1783872, "latitude_y": 48.6878018}, {"nom": "Institut sup\u00e9rieur des arts de Toulouse", "adresse": "5 quai de la Daurade", "commune": "Toulouse", "region": "Occitanie", "longitude_x": 1.44016, "latitude_y": 43.6007}, {"nom": "IDELCA Business school", "adresse": "4 avenue Jean S\u00e9bastien Bach", "commune": "Jacou", "region": "Occitanie", "longitude_x": 3.91021, "latitude_y": 43.6568}, {"nom": "Ecole nationale sup\u00e9rieure d'art Villa Arson", "adresse": "20 avenue Stephen Li\u00e9geard", "commune": "Nice", "region": "Provence-Alpes-C\u00f4te d'Azur", "longitude_x": 7.25296, "latitude_y": 43.7209}, {"nom": "Lyc\u00e9e priv\u00e9 F\u00e9nelon Sainte-Marie La Plaine Monceau", "adresse": "47 rue de Naples", "commune": "Paris", "region": "Ile-de-France", "longitude_x": 2.31638, "latitude_y": 48.8792}, {"nom": "Arobase (antenne du Rh\u00f4ne)", "adresse": "28 rue de la Ba\u00efsse", "commune": "Villeurbanne", "region": "Auvergne-Rh\u00f4ne-Alpes", "longitude_x": 4.8295636, "latitude_y": 45.7842715}, {"nom": "CESI Ecole d'ing\u00e9nieurs - Cesi Ecole sup\u00e9rieure de l'alternance campus de Grenoble", "adresse": "7 chemin du vieux ch\u00eane", "commune": "Meylan", "region": "Auvergne-Rh\u00f4ne-Alpes", "longitude_x": 5.7841703, "latitude_y": 45.2071995}, {"nom": "Institut europ\u00e9en de la qualit\u00e9 totale Poitou-Charentes", "adresse": "Corderie Royale", "commune": "Rochefort", "region": "Nouvelle-Aquitaine", "longitude_x": -0.955559, "latitude_y": 45.9402}, {"nom": "Lyc\u00e9e g\u00e9n\u00e9ral et technologique priv\u00e9 Levavasseur", "adresse": "4 rue F\u00e9nelon", "commune": "Saint-Denis", "region": "La R\u00e9union", "longitude_x": 55.448599, "latitude_y": -20.883734}, {"nom": "Section d'enseignement g\u00e9n\u00e9ral et technologique du LP Reffye", "adresse": "76 avenue Joffre", "commune": "Tarbes", "region": "Occitanie", "longitude_x": 0.0644596, "latitude_y": 43.2389}, {"nom": "UFR de math\u00e9matiques et d'informatique", "adresse": "7 rue Ren\u00e9 Descartes", "commune": "Strasbourg", "region": "Grand-Est", "longitude_x": 7.7629, "latitude_y": 48.5797}, {"nom": "Institut du thermalisme", "adresse": "8 rue Sainte Ursule", "commune": "Dax", "region": "Nouvelle-Aquitaine", "longitude_x": -1.0513872, "latitude_y": 43.7112412}, {"nom": "CFA transport, logistique, voyageurs", "adresse": "Centre Europ\u00e9en de Fret (CEF)", "commune": "Mouguerre", "region": "Nouvelle-Aquitaine", "longitude_x": -1.4153679999999, "latitude_y": 43.4669359}, {"nom": "Purple campus B\u00e9ziers (CFA CCI Occitanie)", "adresse": "308 rue de Chiclana", "commune": "B\u00e9ziers", "region": "Occitanie", "longitude_x": 3.2725192677875, "latitude_y": 43.3340185}, {"nom": "EMLyon Business School programme Global BBA", "adresse": "15 boulevard Diderot", "commune": "Paris", "region": "Ile-de-France", "longitude_x": 2.3706609, "latitude_y": 48.8453648}, {"nom": "Groupe Peyrefitte Susini ETPSE", "adresse": "384 avenue du Club Hippique", "commune": "Aix-en-Provence", "region": "Provence-Alpes-C\u00f4te d'Azur", "longitude_x": 5.43196, "latitude_y": 43.5144}, {"nom": "DIGISUP", "adresse": "74 rue Faidherbe", "commune": "Nevers", "region": "Bourgogne-Franche-Comt\u00e9", "longitude_x": 3.14514, "latitude_y": 47.0005}, {"nom": "IUT d'Aix-Marseille - site de Marseille Luminy", "adresse": "163 avenue de Luminy", "commune": "Marseille", "region": "Provence-Alpes-C\u00f4te d'Azur", "longitude_x": 5.43799, "latitude_y": 43.2349}, {"nom": "Universit\u00e9 de Strasbourg", "adresse": "4 rue Blaise Pascal", "commune": "Strasbourg", "region": "Grand-Est", "longitude_x": 7.766835635582, "latitude_y": 48.579051814514}, {"nom": "LEGTA George Sand", "adresse": "85 route de Queyri\u00e8res", "commune": "Yssingeaux", "region": "Auvergne-Rh\u00f4ne-Alpes", "longitude_x": 4.1237, "latitude_y": 45.1344}, {"nom": "Facult\u00e9 des sciences de la vie", "adresse": "28 rue Goethe", "commune": "Strasbourg", "region": "Grand-Est", "longitude_x": 7.76659, "latitude_y": 48.5842}, {"nom": "UFR Droit, sciences \u00e9conomique et politique site de Nevers", "adresse": "21 rue de l'Universit\u00e9", "commune": "Nevers", "region": "Bourgogne-Franche-Comt\u00e9", "longitude_x": 3.17296, "latitude_y": 46.9971}, {"nom": "Lyc\u00e9e Pierre de Coubertin", "adresse": "320 boulevard du 8 Mai", "commune": "Calais", "region": "Hauts-de-France", "longitude_x": 1.83602, "latitude_y": 50.9567}, {"nom": "CFPPA Les Sardi\u00e8res", "adresse": "79 route de Jasseron", "commune": "Bourg-en-Bresse", "region": "Auvergne-Rh\u00f4ne-Alpes", "longitude_x": 5.258263, "latitude_y": 46.212495}, {"nom": "Lyc\u00e9e en For\u00eat", "adresse": "45 avenue Louis Maurice Chautemps", "commune": "Montargis", "region": "Centre-Val de Loire", "longitude_x": 2.75421, "latitude_y": 48.0111}, {"nom": "Lyc\u00e9e Claude Nicolas Ledoux", "adresse": "30 rue de la paix", "commune": "Vincennes", "region": "Ile-de-France", "longitude_x": 2.4319121, "latitude_y": 48.8499678}, {"nom": "Ecole commerciale priv\u00e9e", "adresse": "19 rue de Wissembourg", "commune": "Strasbourg", "region": "Grand-Est", "longitude_x": 7.74158, "latitude_y": 48.5911}, {"nom": "ADEN FORMATIONS, antenne de Lillebonne (ex : CFA sup\u00e9rieur du Commerce et de la distribution)", "adresse": "Quartier de la Tourbi\u00e8re", "commune": "Lillebonne", "region": "Normandie", "longitude_x": 0.5339412, "latitude_y": 49.523712}, {"nom": "SKEMA Business School", "adresse": "60 Rue Dosto\u00efevski", "commune": "Valbonne", "region": "Provence-Alpes-C\u00f4te d'Azur", "longitude_x": 7.0585492, "latitude_y": 43.6142425}, {"nom": "Institut national sup\u00e9rieur du professorat et de l'\u00e9ducation (site de Vesoul)", "adresse": "Avenue des rives du lac", "commune": "Vaivre-et-Montoille", "region": "Bourgogne-Franche-Comt\u00e9", "longitude_x": 6.1634057, "latitude_y": 47.6436368}, {"nom": "Institut de formation en soins infirmiers - Centre hospitalier Versailles", "adresse": "25 boulevard Saint-Antoine", "commune": "Versailles", "region": "Ile-de-France", "longitude_x": 2.12399, "latitude_y": 48.8165}, {"nom": "Lyc\u00e9e de Beauregard", "adresse": "4 avenue Paul C\u00e9zanne", "commune": "Montbrison", "region": "Auvergne-Rh\u00f4ne-Alpes", "longitude_x": 4.05531, "latitude_y": 45.6104}, {"nom": "Lyc\u00e9e professionnel Rosa Parks", "adresse": "47 rue Ren\u00e9 Le Magorec", "commune": "Rostrenen", "region": "Bretagne", "longitude_x": -3.30878, "latitude_y": 48.234}, {"nom": "UFR de psychologie, sciences sociales, sciences de l'\u00e9ducation", "adresse": "34 avenue Carnot", "commune": "Clermont-Ferrand", "region": "Auvergne-Rh\u00f4ne-Alpes", "longitude_x": 3.09247, "latitude_y": 45.7759}, {"nom": "Arts et M\u00e9tiers Paris - centre d'Aix-en-Provence - formation TP en apprentissage", "adresse": "2 cours des Arts et M\u00e9tiers", "commune": "Aix-en-Provence", "region": "Provence-Alpes-C\u00f4te d'Azur", "longitude_x": 5.4564013, "latitude_y": 43.5310522}, {"nom": "CFA du LP Jean-Fr\u00e9d\u00e9ric Oberlin", "adresse": "4 rue de l'Acad\u00e9mie", "commune": "Strasbourg", "region": "Grand-Est", "longitude_x": 7.76005, "latitude_y": 48.5817}, {"nom": "UFR G\u00e9ographie histoire et sciences de la soci\u00e9t\u00e9", "adresse": "8 place Paul Ricoeur", "commune": "Paris", "region": "Ile-de-France", "longitude_x": 2.38282, "latitude_y": 48.8267}, {"nom": "Universit\u00e9 Rennes 2", "adresse": "Place du Recteur Henri Le Moal", "commune": "Rennes", "region": "Bretagne", "longitude_x": -1.7031024, "latitude_y": 48.1212164}, {"nom": "Purple campus S\u00e8te (CFA CCI Occitanie)", "adresse": "220 avenue du Mar\u00e9chal Juin", "commune": "S\u00e8te", "region": "Occitanie", "longitude_x": 3.70396, "latitude_y": 43.4068}, {"nom": "Facult\u00e9 de droit et science politique - AMU", "adresse": "3 avenue Robert Schuman", "commune": "Aix-en-Provence", "region": "Provence-Alpes-C\u00f4te d'Azur", "longitude_x": 5.44792, "latitude_y": 43.5196}, {"nom": "Facult\u00e9 de m\u00e9decine", "adresse": "9 avenue de la For\u00eat de Haye", "commune": "Vandoeuvre-l\u00e8s-Nancy", "region": "Grand-Est", "longitude_x": 6.14129, "latitude_y": 48.6495}, {"nom": "UFR Droit, \u00c9conomie - antenne du Tampon", "adresse": "117 rue du g\u00e9n\u00e9ral Ailleret", "commune": "Le Tampon", "region": "La R\u00e9union", "longitude_x": 55.507178, "latitude_y": -21.271129}, {"nom": "Centre de ressources, d'expertise et de performance sportives de Poitiers", "adresse": "Ch\u00e2teau de Boivre", "commune": "Vouneuil-sous-Biard", "region": "Nouvelle-Aquitaine", "longitude_x": 0.264469, "latitude_y": 46.5796}, {"nom": "ELPAC", "adresse": "4 rue de la pr\u00e9fecture", "commune": "Limoges", "region": "Nouvelle-Aquitaine", "longitude_x": 1.2571996, "latitude_y": 45.8323746}, {"nom": "Lyc\u00e9e Camille Saint-Saens", "adresse": "22 rue Saint L\u00f4", "commune": "Rouen", "region": "Normandie", "longitude_x": 1.0941, "latitude_y": 49.4427}, {"nom": "Institut Paul Bocuse", "adresse": "Ch\u00e2teau du Vivier", "commune": "Ecully", "region": "Auvergne-Rh\u00f4ne-Alpes", "longitude_x": 4.76766, "latitude_y": 45.7777}, {"nom": "Lyc\u00e9e polyvalent Jacques Brel", "adresse": "2 rue Albert Jacquard", "commune": "V\u00e9nissieux", "region": "Auvergne-Rh\u00f4ne-Alpes", "longitude_x": 4.8807, "latitude_y": 45.6937}, {"nom": "Lyc\u00e9e Jules Lesven", "adresse": "34 rue Jules Lesven", "commune": "Brest", "region": "Bretagne", "longitude_x": -4.4801, "latitude_y": 48.4061}, {"nom": "Facult\u00e9 de g\u00e9ographie et d'am\u00e9nagement", "adresse": "3 rue de l'Argonne", "commune": "Strasbourg", "region": "Grand-Est", "longitude_x": 7.77161, "latitude_y": 48.5842}, {"nom": "Lyc\u00e9e g\u00e9n\u00e9ral et technologique de la Versoie", "adresse": "12 avenue du Forchat", "commune": "Thonon-les-Bains", "region": "Auvergne-Rh\u00f4ne-Alpes", "longitude_x": 6.47139, "latitude_y": 46.3647}, {"nom": "Ecole des Pupilles de l'air - Lyc\u00e9e de la D\u00e9fense", "adresse": "1 all\u00e9e Saint-Exup\u00e9ry", "commune": "Montbonnot-Saint-Martin", "region": "Auvergne-Rh\u00f4ne-Alpes", "longitude_x": 5.8084710000001, "latitude_y": 45.218227}, {"nom": "Ecole de Ma\u00efeutique de Marseille - Facult\u00e9 des sciences m\u00e9dicales et param\u00e9dicales", "adresse": "boulevard Pierre Dramard", "commune": "Marseille", "region": "Provence-Alpes-C\u00f4te d'Azur", "longitude_x": 5.3615443, "latitude_y": 43.3775529}, {"nom": "Lyc\u00e9e polyvalent Europe Robert Schuman", "adresse": "39 avenue de l'Europe", "commune": "Cholet", "region": "Pays de la Loire", "longitude_x": -0.884452, "latitude_y": 47.0453}, {"nom": "3 IFA", "adresse": "Route du Mans", "commune": "Alen\u00e7on", "region": "Normandie", "longitude_x": 0.08922, "latitude_y": 48.4265}, {"nom": "Lyc\u00e9e Jehanne de France", "adresse": "6 rue de la Fraternelle", "commune": "Lyon", "region": "Auvergne-Rh\u00f4ne-Alpes", "longitude_x": 4.8036, "latitude_y": 45.7693}, {"nom": "Universit\u00e9 de Haute Alsace Mulhouse", "adresse": "2 rue des Fr\u00e8res Lumi\u00e8re", "commune": "Mulhouse", "region": "Grand-Est", "longitude_x": 7.3095751, "latitude_y": 47.7283194}, {"nom": "Sup de Pub - Inseec", "adresse": "Hangar 18 quai de Bacalan", "commune": "Bordeaux", "region": "Nouvelle-Aquitaine", "longitude_x": -0.55746504313049, "latitude_y": 44.858348540887}, {"nom": "Lyc\u00e9e Jacques Brel", "adresse": "4-6 rue Dulcie September", "commune": "La Courneuve", "region": "Ile-de-France", "longitude_x": 2.40033, "latitude_y": 48.9296}, {"nom": "Ecole nationale d'ing\u00e9nieurs de Brest", "adresse": "Technop\u00f4le Brest-Iroise", "commune": "Brest", "region": "Bretagne", "longitude_x": -4.565718, "latitude_y": 48.360345}, {"nom": "Lyc\u00e9e agricole et agroalimentaire", "adresse": "Route de Caudebec", "commune": "Yvetot", "region": "Normandie", "longitude_x": 0.73387379999997, "latitude_y": 49.5894256}, {"nom": "Arts et M\u00e9tiers Paris - centre de Cluny", "adresse": "Rue Porte de Paris", "commune": "Cluny", "region": "Bourgogne-Franche-Comt\u00e9", "longitude_x": 4.65903, "latitude_y": 46.4342}, {"nom": "Ecole nationale d'ing\u00e9nieurs de Tarbes - Toulouse INP", "adresse": "47 avenue d'Azereix", "commune": "Tarbes", "region": "Occitanie", "longitude_x": 0.0532501, "latitude_y": 43.2252}, {"nom": "Graduate School Sciences de l'ing\u00e9nierie et des syst\u00e8mes", "adresse": "", "commune": "Saclay", "region": "Ile-de-France", "longitude_x": 2.1715, "latitude_y": 48.73}, {"nom": "UFR de m\u00e9decine", "adresse": "place du commandant Nal", "commune": "La Tronche", "region": "Auvergne-Rh\u00f4ne-Alpes", "longitude_x": 5.74448, "latitude_y": 45.2018}, {"nom": "IUT Louis Pasteur", "adresse": "1 All\u00e9e d'Ath\u00e8nes", "commune": "Schiltigheim", "region": "Grand-Est", "longitude_x": 7.70801, "latitude_y": 48.6078}, {"nom": "Ecole sup\u00e9rieure des ressources humaines", "adresse": "54 bis rue Dombasle", "commune": "Paris", "region": "Ile-de-France", "longitude_x": 2.3016592, "latitude_y": 48.8353966}, {"nom": "Etcharry Formation D\u00e9veloppement", "adresse": "Domaine Landagoyen", "commune": "Ustaritz", "region": "Nouvelle-Aquitaine", "longitude_x": -1.4545900000001, "latitude_y": 43.395936}, {"nom": "CFA INTERFOR", "adresse": "2 rue Vad\u00e9", "commune": "Amiens", "region": "Hauts-de-France", "longitude_x": 2.3081979, "latitude_y": 49.8943968}, {"nom": "Ecole technique priv\u00e9e d'esth\u00e9tique Esther Mario Groupe Silvya TERRADE", "adresse": "6 avenue Marcel Langer", "commune": "Toulouse", "region": "Occitanie", "longitude_x": 1.44358, "latitude_y": 43.6002}, {"nom": "Universit\u00e9 de Bourgogne", "adresse": "Esplanade Erasme", "commune": "Dijon", "region": "Bourgogne-Franche-Comt\u00e9", "longitude_x": 5.0657991735412, "latitude_y": 47.313079771673}, {"nom": "Institut de formation en soins infirmiers - Centre hospitalier Ren\u00e9 Dubos", "adresse": "3 bis avenue Ile de France", "commune": "Pontoise", "region": "Ile-de-France", "longitude_x": 2.09336, "latitude_y": 49.0616}, {"nom": "Centre de formation professionnelle et de promotion agricole de Brioude Bonnefont", "adresse": "Route de Bonnefont", "commune": "Fontannes", "region": "Auvergne-Rh\u00f4ne-Alpes", "longitude_x": 3.424045, "latitude_y": 45.2893599}, {"nom": "Section g\u00e9n\u00e9rale et technologique du LP Jeanne d'Arc", "adresse": "5 chemin Saint-Roch", "commune": "Arles", "region": "Provence-Alpes-C\u00f4te d'Azur", "longitude_x": 4.64286, "latitude_y": 43.6743}, {"nom": "Junia Ecole des hautes \u00e9tudes d'ing\u00e9nieur exYncr\u00e9a exHauts-de-France - Ch\u00e2teauroux", "adresse": "2 all\u00e9e Jean Vaill\u00e9", "commune": "Ch\u00e2teauroux", "region": "Centre-Val de Loire", "longitude_x": 1.67535, "latitude_y": 46.812358}, {"nom": "Lyon Ynov Campus", "adresse": "27 rue Raoul Servant", "commune": "Lyon", "region": "Auvergne-Rh\u00f4ne-Alpes", "longitude_x": 4.8377549946314, "latitude_y": 45.74571565}, {"nom": "Institut sup\u00e9rieur de l'automobile et des transports - site de Nevers", "adresse": "49 rue Mademoiselle Bourgeois", "commune": "Nevers", "region": "Bourgogne-Franche-Comt\u00e9", "longitude_x": 3.17126, "latitude_y": 46.9978}, {"nom": "Lyc\u00e9e polyvalent Saint-Michel", "adresse": "39 rue Martin Peller", "commune": "Reims", "region": "Grand-Est", "longitude_x": 4.0133841, "latitude_y": 49.2467865}, {"nom": "Lyc\u00e9e Jean Perrin", "adresse": "74 rue Verdillon", "commune": "Marseille", "region": "Provence-Alpes-C\u00f4te d'Azur", "longitude_x": 5.4265, "latitude_y": 43.2746}, {"nom": "Institut d'\u00e9tudes judiciaires Henri Motulsky", "adresse": "200 avenue de la R\u00e9publique", "commune": "Nanterre", "region": "Ile-de-France", "longitude_x": 2.208814, "latitude_y": 48.90474}, {"nom": "Lyc\u00e9e ND du Kreisker", "adresse": "2 rue Cadiou", "commune": "Saint-Pol-de-L\u00e9on", "region": "Bretagne", "longitude_x": -3.98836, "latitude_y": 48.6815}, {"nom": "Institut de formation en soins infirmiers et aides-soignants - Centre hospitalier pays de Morlaix", "adresse": "15 rue Kersaint Gilly", "commune": "Morlaix", "region": "Bretagne", "longitude_x": -3.82944, "latitude_y": 48.5716}, {"nom": "Centre international d'\u00e9tudes fran\u00e7aises", "adresse": "3 place Andr\u00e9 Leroy", "commune": "Angers", "region": "Pays de la Loire", "longitude_x": -0.546889, "latitude_y": 47.4633}, {"nom": "Lyc\u00e9e Saint-Joseph - Sainte Marie-Madeleine", "adresse": "9 quai Am\u00e9d\u00e9e Couesnon", "commune": "Ch\u00e2teau-Thierry", "region": "Hauts-de-France", "longitude_x": 3.40082, "latitude_y": 49.0423}, {"nom": "Institut de formation en soins infirmiers - Institut de formation d'aides-soignants - Centre hospitalier", "adresse": "94 rue des Anciens Combattants", "commune": "Chauny", "region": "Hauts-de-France", "longitude_x": 3.23488, "latitude_y": 49.6251}, {"nom": "Cours Galien", "adresse": "235 Avenue de la Recherche", "commune": "Loos", "region": "Hauts-de-France", "longitude_x": 3.0382173, "latitude_y": 50.6027372}, {"nom": "Institut Colbert - Cnam", "adresse": "boulevard Pierre Lecocq", "commune": "Cholet", "region": "Pays de la Loire", "longitude_x": -0.8622104, "latitude_y": 47.0495748}, {"nom": "Institut de formation en soins infirmiers Bichat Claude Bernard (AP)", "adresse": "133 boulevard Ney", "commune": "Paris", "region": "Ile-de-France", "longitude_x": 2.33194, "latitude_y": 48.8975}, {"nom": "Institut de formation en soins infirmiers", "adresse": "Rue du Ch\u00e2teau", "commune": "Ch\u00e2lette-sur-Loing", "region": "Centre-Val de Loire", "longitude_x": 2.73104, "latitude_y": 48.0155}, {"nom": "Centre de formation et de promotion horticole", "adresse": "13 avenue de Verdun", "commune": "Ecully", "region": "Auvergne-Rh\u00f4ne-Alpes", "longitude_x": 4.787821, "latitude_y": 45.773828}, {"nom": "Institut de formation en soins infirmiers - Centre hospitalier", "adresse": "11 Place de la Lentilla", "commune": "Perpignan", "region": "Occitanie", "longitude_x": 2.88903, "latitude_y": 42.7255}, {"nom": "Institut national sup\u00e9rieur du professorat et de l'\u00e9ducation", "adresse": "10 rue des Fran\u00e7ais Libres", "commune": "Amiens", "region": "Hauts-de-France", "longitude_x": 2.2842755, "latitude_y": 49.8821128}, {"nom": "Lyc\u00e9e Beaussier", "adresse": "Place Galil\u00e9e", "commune": "La Seyne-sur-Mer", "region": "Provence-Alpes-C\u00f4te d'Azur", "longitude_x": 5.87747, "latitude_y": 43.0994}, {"nom": "Lyc\u00e9e agricole Edouard de Chambray", "adresse": "Route de Chambray", "commune": "Mesnils-sur-Iton", "region": "Normandie", "longitude_x": 0.999992, "latitude_y": 48.8387}, {"nom": "P\u00f4le Ali\u00e9nor", "adresse": "10 rue t\u00eate noire", "commune": "Poitiers", "region": "Nouvelle-Aquitaine", "longitude_x": 0.343822, "latitude_y": 46.5847}, {"nom": "Lyc\u00e9e Saint-Charles", "adresse": "1 rue du Brouage", "commune": "Chauny", "region": "Hauts-de-France", "longitude_x": 3.21253, "latitude_y": 49.6147}, {"nom": "Essentia Cara\u00efbes", "adresse": "ZI de Champigny", "commune": "Ducos", "region": "Martinique", "longitude_x": -60.975, "latitude_y": 14.575}, {"nom": "CFA de Seine-Maritime de Fauville-en-Caux - NaturaPOLE", "adresse": "1333 rue Bernard Th\u00e9lu - Fauville-en-Caux", "commune": "Terres-de-Caux", "region": "Normandie", "longitude_x": 0.592414, "latitude_y": 49.657}, {"nom": "Lyc\u00e9e agro-environnemental d'Arras", "adresse": "Route de Cambrai", "commune": "Tilloy-l\u00e8s-Mofflaines", "region": "Hauts-de-France", "longitude_x": 2.8109, "latitude_y": 50.2803}, {"nom": "Lyc\u00e9e Claude Monet", "adresse": "267 rue F\u00e9lix Faure", "commune": "Le Havre", "region": "Normandie", "longitude_x": 0.107659, "latitude_y": 49.5015}, {"nom": "Universit\u00e9 de Lorraine", "adresse": "34 cours L\u00e9opold", "commune": "Nancy", "region": "Grand-Est", "longitude_x": 6.176543, "latitude_y": 48.696236}, {"nom": "Facult\u00e9 de th\u00e9ologie catholique", "adresse": "9 place de l'universit\u00e9", "commune": "Strasbourg", "region": "Grand-Est", "longitude_x": 7.76276, "latitude_y": 48.5852}, {"nom": "SUP' DE COM \u00e9cole sup\u00e9rieure de communication", "adresse": "16 boulevard G\u00e9n\u00e9ral de Gaulle", "commune": "Nantes", "region": "Pays de la Loire", "longitude_x": -1.5386278151359, "latitude_y": 47.206104097308}, {"nom": "Ecole nationale sup\u00e9rieure des mines de Saint-Etienne - site de Gardanne", "adresse": "880 avenue de Mimet", "commune": "Gardanne", "region": "Provence-Alpes-C\u00f4te d'Azur", "longitude_x": 5.4883, "latitude_y": 43.4415}, {"nom": "CFA agricole de la Ni\u00e8vre, site Ch\u00e2teau-Chinon", "adresse": "Rue Pierre Mend\u00e8s France", "commune": "Ch\u00e2teau-Chinon", "region": "Bourgogne-Franche-Comt\u00e9", "longitude_x": 3.9390457, "latitude_y": 47.0596353}, {"nom": "CNPH Centre national de promotion horticole", "adresse": "43 rue du Roi Ren\u00e9", "commune": "La M\u00e9nitre", "region": "Pays de la Loire", "longitude_x": -0.2707, "latitude_y": 47.4037}, {"nom": "Institut de formation en soins infirmiers", "adresse": "21 rue de la Redoute", "commune": "Haguenau", "region": "Grand-Est", "longitude_x": 7.79048, "latitude_y": 48.8105}, {"nom": "Maison familiale rurale de Maltot", "adresse": "Le ch\u00e2teau", "commune": "Maltot", "region": "Normandie", "longitude_x": -0.410247, "latitude_y": 49.1336}, {"nom": "Lyc\u00e9e les Rosiers", "adresse": "17 chemin de Rocques", "commune": "Lisieux", "region": "Normandie", "longitude_x": 0.228956, "latitude_y": 49.1529}, {"nom": "Lyc\u00e9e polyvalent Louis Vicat", "adresse": "2 place Marsal\u00e8s", "commune": "Souillac", "region": "Occitanie", "longitude_x": 1.48142, "latitude_y": 44.8942}, {"nom": "Ecole Silvya Terrade Belfort", "adresse": "11-13 rue Aristide Briand", "commune": "Belfort", "region": "Bourgogne-Franche-Comt\u00e9", "longitude_x": 6.85552, "latitude_y": 47.6326}, {"nom": "Institut sup\u00e9rieur de r\u00e9\u00e9ducation psychomotrice", "adresse": "14 rue Mar\u00e9chal Foch", "commune": "Vichy", "region": "Auvergne-Rh\u00f4ne-Alpes", "longitude_x": 3.4233268, "latitude_y": 46.1223567}, {"nom": "Institut de formation en soins infirmiers du Centre hospitalier d\u00e9partemental Stell", "adresse": "25 avenue Paul Doumer", "commune": "Rueil-Malmaison", "region": "Ile-de-France", "longitude_x": 2.19068, "latitude_y": 48.8832}, {"nom": "Lyc\u00e9e Louis Feuillade (voie g\u00e9n\u00e9rale et technologique)", "adresse": "49 rue Romain Rolland", "commune": "Lunel", "region": "Occitanie", "longitude_x": 4.12241, "latitude_y": 43.6709}, {"nom": "Centre de formation au travail sanitaire et social - Fondation John Bost", "adresse": "28 boulevard Albert Claveille", "commune": "Bergerac", "region": "Nouvelle-Aquitaine", "longitude_x": 0.509959, "latitude_y": 44.8535}, {"nom": "Carrel Ecole des m\u00e9tiers de la sant\u00e9 et du social", "adresse": "119 rue Boileau", "commune": "Lyon", "region": "Auvergne-Rh\u00f4ne-Alpes", "longitude_x": 4.8496046, "latitude_y": 45.7659591}, {"nom": "Lyc\u00e9e professionnel Magnan", "adresse": "34 rue Auguste Renoir", "commune": "Nice", "region": "Provence-Alpes-C\u00f4te d'Azur", "longitude_x": 7.2491586, "latitude_y": 43.6936877}, {"nom": "UFR des sciences juridiques et \u00e9conomiques- site de Narbonne", "adresse": "Avenue Pierre de Coubertin", "commune": "Narbonne", "region": "Occitanie", "longitude_x": 3.02256, "latitude_y": 43.1838}, {"nom": "L'Institut des \u00e9tudes comptables", "adresse": "12 avenue des Pr\u00e9s", "commune": "Montigny-le-Bretonneux", "region": "Ile-de-France", "longitude_x": 2.0163, "latitude_y": 48.7764}, {"nom": "Ecole sup\u00e9rieure d'optique et de lunetterie", "adresse": "81 rue Marius Carrieu - Parc du Belv\u00e9d\u00e8re", "commune": "Montpellier", "region": "Occitanie", "longitude_x": 3.84412, "latitude_y": 43.617}, {"nom": "Conservatoire \u00e0 rayonnement r\u00e9gional Emmanuel Chabrier", "adresse": "3 rue du Mar\u00e9chal Joffre", "commune": "Clermont-Ferrand", "region": "Auvergne-Rh\u00f4ne-Alpes", "longitude_x": 3.1910333, "latitude_y": 45.7322906}, {"nom": "IUT de Bourges", "adresse": "63 avenue de Lattre de Tassigny", "commune": "Bourges", "region": "Centre-Val de Loire", "longitude_x": 2.41751, "latitude_y": 47.0985}, {"nom": "Pigier Performance Nice", "adresse": "150 boulevard des Jardiniers", "commune": "Nice", "region": "Provence-Alpes-C\u00f4te d'Azur", "longitude_x": 7.19238, "latitude_y": 43.71}, {"nom": "Institut de formation aux affaires et \u00e0 la gestion", "adresse": "31 quai Louis Blanc", "commune": "Montlu\u00e7on", "region": "Auvergne-Rh\u00f4ne-Alpes", "longitude_x": 2.60258, "latitude_y": 46.3421}, {"nom": "CFA industriel Poitou-Charentes - site de Rochefort", "adresse": "23 avenue Andr\u00e9 Dulin", "commune": "Rochefort", "region": "Nouvelle-Aquitaine", "longitude_x": -0.961301, "latitude_y": 45.9621}, {"nom": "Lyc\u00e9e priv\u00e9 Saint Joseph", "adresse": "207 rue F\u00e9lix Faure", "commune": "Le Havre", "region": "Normandie", "longitude_x": 0.105558, "latitude_y": 49.5004}, {"nom": "Lyc\u00e9e polyvalent Marie Curie", "adresse": "81 Rue Roger Dijoux", "commune": "Saint-Beno\u00eet", "region": "La R\u00e9union", "longitude_x": 55.739522, "latitude_y": -21.077533}, {"nom": "Al\u00e9sia formation", "adresse": "65 rue de l'abb\u00e9 Bonpain", "commune": "Marcq-en-Baroeul", "region": "Hauts-de-France", "longitude_x": 3.0833246, "latitude_y": 50.6589052}, {"nom": "Institut de formation en soins infirmiers et d'aides-soignants - Centre hospitalier de Rochefort", "adresse": "1 avenue de B\u00e9ligon", "commune": "Rochefort", "region": "Nouvelle-Aquitaine", "longitude_x": -0.961267, "latitude_y": 45.9386}, {"nom": "Neoma Business School", "adresse": "9 rue d'Ath\u00e8nes", "commune": "Paris", "region": "Ile-de-France", "longitude_x": 2.328906, "latitude_y": 48.8778368}, {"nom": "Alternance Rh\u00f4ne-Alpes", "adresse": "7 rue de l\u2019Abb\u00e9 Vincent", "commune": "Fontaine", "region": "Auvergne-Rh\u00f4ne-Alpes", "longitude_x": 5.6742442, "latitude_y": 45.1934051}, {"nom": "Institut de formation en soins infirmiers - h\u00f4pital Ambroise Par\u00e9 (AP)", "adresse": "9 avenue Charles de Gaulle", "commune": "Boulogne-Billancourt", "region": "Ile-de-France", "longitude_x": 2.2345, "latitude_y": 48.8477}, {"nom": "Maison familiale rurale du Bergeracois", "adresse": "Route de Picou", "commune": "La Force", "region": "Nouvelle-Aquitaine", "longitude_x": 0.364676, "latitude_y": 44.8713}, {"nom": "\u00c9cole des M\u00e9tiers Dijon m\u00e9tropole", "adresse": "1 Chemin de la Noue", "commune": "Longvic", "region": "Bourgogne-Franche-Comt\u00e9", "longitude_x": 5.03304, "latitude_y": 47.2927}, {"nom": "IUT d'Evry (site Evry - Rom\u00e9ro - TCE)", "adresse": "15 Cours Monseigneur Rom\u00e9ro", "commune": "Evry-Courcouronnes", "region": "Ile-de-France", "longitude_x": 2.4295124, "latitude_y": 48.6230733}, {"nom": "Lyc\u00e9e agricole priv\u00e9 Fran\u00e7ois Marty (antenne de Villefranche de Rouergue)", "adresse": "boulevard P\u00e9nevayre", "commune": "Villefranche-de-Rouergue", "region": "Occitanie", "longitude_x": 2.04116, "latitude_y": 44.3553}, {"nom": "\u00c9cole sup\u00e9rieure de Praxis sociale - site Schlumberger", "adresse": "4 rue Schlumberger", "commune": "Mulhouse", "region": "Grand-Est", "longitude_x": 7.33478, "latitude_y": 47.7498}, {"nom": "\u00c9cole sup\u00e9rieure des Beaux-Arts de Bordeaux", "adresse": "7 rue des Beaux-Arts", "commune": "Bordeaux", "region": "Nouvelle-Aquitaine", "longitude_x": -0.560102, "latitude_y": 44.8305}, {"nom": "CFA de la propret\u00e9", "adresse": "21 avenue Didier Daurat", "commune": "Toulouse", "region": "Occitanie", "longitude_x": 1.4912, "latitude_y": 43.5702}, {"nom": "IUT de Martinique", "adresse": "Campus de Schoelcher", "commune": "Schoelcher", "region": "Martinique", "longitude_x": -61.1024569, "latitude_y": 14.6245877}, {"nom": "Ecole INFA", "adresse": "5 - 9 rue Anquetil", "commune": "Nogent-sur-Marne", "region": "Ile-de-France", "longitude_x": 2.48684, "latitude_y": 48.8423}, {"nom": "C3 CFA", "adresse": "101 rue de la Fontaine Grelot", "commune": "Antony", "region": "Ile-de-France", "longitude_x": 2.316747, "latitude_y": 48.770437}, {"nom": "Institut d'administration des entreprises", "adresse": "20 rue Guillaume VII le Troubadour", "commune": "Poitiers", "region": "Nouvelle-Aquitaine", "longitude_x": 0.344529, "latitude_y": 46.5882}, {"nom": "Centre universitaire Condorcet", "adresse": "720 avenue de l'Europe", "commune": "Le Creusot", "region": "Bourgogne-Franche-Comt\u00e9", "longitude_x": 4.42292, "latitude_y": 46.8077}, {"nom": "Centre de formation des personnels de sant\u00e9 Site Sainte Anne", "adresse": "782 avenue de Non\u00e8res", "commune": "Mont-de-Marsan", "region": "Nouvelle-Aquitaine", "longitude_x": -0.486133, "latitude_y": 43.8939}, {"nom": "Lyc\u00e9e H\u00f4telier de Tahiti", "adresse": "MOANA NUI", "commune": "Punaauia", "region": "Collectivit\u00e9s d'Outre Mer", "longitude_x": -149.619095, "latitude_y": -17.634781}, {"nom": "Institut national de podologie", "adresse": "8 rue Sainte Anne", "commune": "Paris", "region": "Ile-de-France", "longitude_x": 2.33113, "latitude_y": 48.8661}, {"nom": "CFA de la Chambre de m\u00e9tiers et de l'artisanat interd\u00e9partementale section Dordogne", "adresse": "16 avenue Henry Deluc", "commune": "Boulazac Isle Manoire", "region": "Nouvelle-Aquitaine", "longitude_x": 0.778007, "latitude_y": 45.1805}, {"nom": "CFA Compagnons du Tour de France - Nouvelle Aquitaine (FCMB)", "adresse": "3 all\u00e9e de Bellevue", "commune": "Anglet", "region": "Nouvelle-Aquitaine", "longitude_x": -1.51129, "latitude_y": 43.5031}, {"nom": "Institut de gestion et d'\u00e9tudes financi\u00e8res", "adresse": "20 bis Jardins Boieldieu", "commune": "Puteaux", "region": "Ile-de-France", "longitude_x": 2.2838983, "latitude_y": 48.891311}, {"nom": "Lyc\u00e9e Louis Majorelle", "adresse": "16 rue Porte de Metz", "commune": "Toul", "region": "Grand-Est", "longitude_x": 5.89289, "latitude_y": 48.6783}, {"nom": "Ecole nationale d'ing\u00e9nieurs de Metz", "adresse": "1 route d'Ars Laquenexy", "commune": "Metz", "region": "Grand-Est", "longitude_x": 6.22677, "latitude_y": 49.0926}, {"nom": "Lyc\u00e9e les Bruy\u00e8res", "adresse": "67 avenue des Canadiens", "commune": "Sotteville-l\u00e8s-Rouen", "region": "Normandie", "longitude_x": 1.07483, "latitude_y": 49.4125}, {"nom": "Institut europ\u00e9en de formation au tourisme", "adresse": "20 bis jardins Boieldieu", "commune": "Puteaux", "region": "Ile-de-France", "longitude_x": 2.2381665, "latitude_y": 48.8868387}, {"nom": "Lyc\u00e9e Turgot", "adresse": "69 rue de Turbigo", "commune": "Paris", "region": "Ile-de-France", "longitude_x": 2.35862, "latitude_y": 48.8661}, {"nom": "Conservatoire national sup\u00e9rieur musique et danse de Lyon", "adresse": "3 quai Chauveau", "commune": "Lyon", "region": "Auvergne-Rh\u00f4ne-Alpes", "longitude_x": 4.81261, "latitude_y": 45.7688}, {"nom": "Ecole sup\u00e9rieure des beaux-arts de Nantes M\u00e9tropole", "adresse": "2 rue Frida Kahlo", "commune": "Nantes", "region": "Pays de la Loire", "longitude_x": -1.5598, "latitude_y": 47.2066}, {"nom": "Institut de formation en soins infirmiers - h\u00f4pital Piti\u00e9-Salp\u00eatri\u00e8re (AP)", "adresse": "47 boulevard de l'H\u00f4pital", "commune": "Paris", "region": "Ile-de-France", "longitude_x": 2.36319, "latitude_y": 48.8402}, {"nom": "Institut de formation en ergoth\u00e9rapie", "adresse": "57 rue Salvador Allende", "commune": "Loos", "region": "Hauts-de-France", "longitude_x": 3.0447786, "latitude_y": 50.6020578}, {"nom": "Institut de formation en masso-kin\u00e9sith\u00e9rapie - CHU de Poitiers", "adresse": "2 rue de la Mil\u00e9trie", "commune": "Poitiers", "region": "Nouvelle-Aquitaine", "longitude_x": 0.377225, "latitude_y": 46.5603}, {"nom": "IUT de Chartres", "adresse": "1 place Roger Joly", "commune": "Chartres", "region": "Centre-Val de Loire", "longitude_x": 1.49638, "latitude_y": 48.442}, {"nom": "SUP-FORMATION", "adresse": "161 rue Andr\u00e9 Bisiaux", "commune": "Max\u00e9ville", "region": "Grand-Est", "longitude_x": 6.14395, "latitude_y": 48.7048}, {"nom": "Ecole sup\u00e9rieure des g\u00e9om\u00e8tres et topographes Cnam", "adresse": "1 boulevard Pythagore", "commune": "Le Mans", "region": "Pays de la Loire", "longitude_x": 0.154849, "latitude_y": 48.019}, {"nom": "Institut catholique d'arts et m\u00e9tiers - site de Nantes - ICAM ouvert", "adresse": "35 avenue du Champ de Maneuvre", "commune": "Carquefou", "region": "Pays de la Loire", "longitude_x": -1.5064787864685, "latitude_y": 47.275298346778}, {"nom": "Institut de formation en soins infirmiers - Institut de formation d'aides-soignants", "adresse": "12 boulevard du Docteur Chantemesse", "commune": "Le Puy-en-Velay", "region": "Auvergne-Rh\u00f4ne-Alpes", "longitude_x": 3.87778, "latitude_y": 45.0497}, {"nom": "CFA IFPC", "adresse": "41 rue de Matignon", "commune": "Boucau", "region": "Nouvelle-Aquitaine", "longitude_x": -1.4659506082535, "latitude_y": 43.531772595222}, {"nom": "Centre de formation professionnelle et de promotion agricole d'Aurillac", "adresse": "11 rue de Salers", "commune": "Aurillac", "region": "Auvergne-Rh\u00f4ne-Alpes", "longitude_x": 2.4436592004165, "latitude_y": 44.937120826425}, {"nom": "CFA Interprofessionnel de l'Yonne", "adresse": "3 rue Jean Bertin", "commune": "Auxerre", "region": "Bourgogne-Franche-Comt\u00e9", "longitude_x": 3.57939, "latitude_y": 47.8091}, {"nom": "Lyc\u00e9e Gustave Eiffel", "adresse": "16 chemin de la Renardi\u00e8re", "commune": "Gagny", "region": "Ile-de-France", "longitude_x": 2.5422, "latitude_y": 48.8892}, {"nom": "IUT de l'Aisne campus de Saint-Quentin", "adresse": "48 rue d'Ostende", "commune": "Saint-Quentin", "region": "Hauts-de-France", "longitude_x": 3.30012, "latitude_y": 49.8369}, {"nom": "Facult\u00e9 des sciences historiques", "adresse": "9 place de l'universit\u00e9", "commune": "Strasbourg", "region": "Grand-Est", "longitude_x": 7.76268, "latitude_y": 48.585}, {"nom": "Lyc\u00e9e Saint-Louis", "adresse": "Rue Jean Hameau", "commune": "Bordeaux", "region": "Nouvelle-Aquitaine", "longitude_x": -0.567405, "latitude_y": 44.8665}, {"nom": "Lyc\u00e9e Samuel Beckett", "adresse": "19 rue du Lion", "commune": "La Fert\u00e9-sous-Jouarre", "region": "Ile-de-France", "longitude_x": 3.13195, "latitude_y": 48.9438}, {"nom": "IUT de Perpignan antenne de Narbonne", "adresse": "Avenue Pierre de Coubertin", "commune": "Narbonne", "region": "Occitanie", "longitude_x": 3.02284, "latitude_y": 43.1837}, {"nom": "Lyc\u00e9e Jacques Decour", "adresse": "12 avenue Trudaine", "commune": "Paris", "region": "Ile-de-France", "longitude_x": 2.34341, "latitude_y": 48.8815}, {"nom": "Lyc\u00e9e horticole Grenoble Saint-Ismier - Ecole du paysage", "adresse": "1 chemin de Charvini\u00e8re", "commune": "Saint-Ismier", "region": "Auvergne-Rh\u00f4ne-Alpes", "longitude_x": 5.82463, "latitude_y": 45.2406}, {"nom": "Ecole des m\u00e9tiers professionnels c\u00e9venole", "adresse": "296 avenue Jean Moulin", "commune": "Saint-Christol-l\u00e8s-Al\u00e8s", "region": "Occitanie", "longitude_x": 4.07816, "latitude_y": 44.0802}, {"nom": "PCMP", "adresse": "1 all\u00e9e du Professeur Pierre Galibert", "commune": "Pont-de-Metz", "region": "Hauts-de-France", "longitude_x": 2.25793, "latitude_y": 49.8772}, {"nom": "Ecole formation conseil en image et maquillage", "adresse": "15-17 rue de la libert\u00e9", "commune": "Nice", "region": "Provence-Alpes-C\u00f4te d'Azur", "longitude_x": 7.26642, "latitude_y": 43.6977}, {"nom": "Wild Code School", "adresse": "6 rue saint brice", "commune": "Reims", "region": "Grand-Est", "longitude_x": 4.020916, "latitude_y": 49.257414}, {"nom": "SCIENCES-U EFAB Paris, \u00e9cole sup\u00e9rieure Immobilier et Ressources Humaines", "adresse": "11-13 rue Camille Pelletan", "commune": "Montrouge", "region": "Ile-de-France", "longitude_x": 2.30929, "latitude_y": 48.8165}, {"nom": "Institut des m\u00e9dias avanc\u00e9s, des arts et des technologies", "adresse": "5 avenue Ir\u00e8ne Joliot-Curie", "commune": "Toulouse", "region": "Occitanie", "longitude_x": 1.431097984314, "latitude_y": 43.55551514956}, {"nom": "ADONIS", "adresse": "24 bis rue Gantois", "commune": "Lille", "region": "Hauts-de-France", "longitude_x": 3.05774, "latitude_y": 50.6255}, {"nom": "Lyc\u00e9e priv\u00e9 de la Mouill\u00e8re", "adresse": "66 avenue de la Mouill\u00e8re", "commune": "Orl\u00e9ans", "region": "Centre-Val de Loire", "longitude_x": 1.90936, "latitude_y": 47.8815}, {"nom": "Ecole internationale d'esth\u00e9tique Elys\u00e9es Marbeuf", "adresse": "64 bis rue de la Bo\u00e9tie", "commune": "Paris", "region": "Ile-de-France", "longitude_x": 2.31196, "latitude_y": 48.8733}, {"nom": "Institut national des transports internationaux et des ports", "adresse": "25 rue Philippe Lebon", "commune": "Le Havre", "region": "Normandie", "longitude_x": 0.129114, "latitude_y": 49.4959}, {"nom": "ITESCIA Coding Factory - Campus Cergy", "adresse": "35 boulevard du port", "commune": "Cergy", "region": "Ile-de-France", "longitude_x": 2.07895, "latitude_y": 49.0398}, {"nom": "Institut sup\u00e9rieur de formation de l'enseignement catholique de Normandie (ISFEC Normandie)", "adresse": "535 boulevard de la Paix", "commune": "H\u00e9rouville-Saint-Clair", "region": "Normandie", "longitude_x": -0.32436, "latitude_y": 49.1951}, {"nom": "SUPEXUP", "adresse": "1567 avenue Albert Einstein", "commune": "Montpellier", "region": "Occitanie", "longitude_x": 3.91605, "latitude_y": 43.6108}, {"nom": "Lyc\u00e9e Teilhard de Chardin", "adresse": "2 place d'Armes", "commune": "Saint-Maur-des-Foss\u00e9s", "region": "Ile-de-France", "longitude_x": 2.47141, "latitude_y": 48.8127}, {"nom": "Graduate School Physique", "adresse": "Espace Technologique - B\u00e2timent Discovery - Route de l'Orme aux Merisiers", "commune": "Saclay", "region": "Ile-de-France", "longitude_x": 2.1532742, "latitude_y": 48.7104784}, {"nom": "Lyc\u00e9e polyvalent L\u00e9onard de Vinci", "adresse": "2 bis rue Edouard Branly", "commune": "Melun", "region": "Ile-de-France", "longitude_x": 2.65908, "latitude_y": 48.5524}, {"nom": "Lyc\u00e9e Saint-Michel - Enseignement sup\u00e9rieur", "adresse": "29 rue Michelet", "commune": "Saint-Etienne", "region": "Auvergne-Rh\u00f4ne-Alpes", "longitude_x": 4.397472, "latitude_y": 45.431408}, {"nom": "IUT campus du Creusot", "adresse": "12 rue de la Fonderie", "commune": "Le Creusot", "region": "Bourgogne-Franche-Comt\u00e9", "longitude_x": 4.41347, "latitude_y": 46.807}, {"nom": "Institut de formation en ergoth\u00e9rapie", "adresse": "1672 rue de St Priest - Parc Eurom\u00e9decine", "commune": "Montpellier", "region": "Occitanie", "longitude_x": 3.83283, "latitude_y": 43.6382}, {"nom": "Institut de formation en soins infirmiers Flandre int\u00e9rieure", "adresse": "96 rue Jules Lebleu", "commune": "Armenti\u00e8res", "region": "Hauts-de-France", "longitude_x": 2.8863481, "latitude_y": 50.6824324}, {"nom": "Institut de formation en soins infirmiers", "adresse": "rue Jacques Monod", "commune": "Boulogne-sur-Mer", "region": "Hauts-de-France", "longitude_x": 1.63168, "latitude_y": 50.7228}, {"nom": "Institut sup\u00e9rieur de r\u00e9\u00e9ducation psychomotrice", "adresse": "25 rue Ginoux", "commune": "Paris", "region": "Ile-de-France", "longitude_x": 2.28867, "latitude_y": 48.8475}, {"nom": "Institut de formation en soins infirmiers - Centre hospitalier Barth\u00e9lemy Durand", "adresse": "Avenue du 8 Mai 1945", "commune": "Etampes", "region": "Ile-de-France", "longitude_x": 2.15523, "latitude_y": 48.446}, {"nom": "Lyc\u00e9e polyvalent de Sada", "adresse": "", "commune": "Sada", "region": "Mayotte", "longitude_x": 45.1119, "latitude_y": -12.8435}, {"nom": "Institut de formation en masso-kin\u00e9sith\u00e9rapie Saint-Michel", "adresse": "29 rue Michelet", "commune": "Saint-Etienne", "region": "Auvergne-Rh\u00f4ne-Alpes", "longitude_x": 4.3899666, "latitude_y": 45.4340712}, {"nom": "Universit\u00e9 de technologie de Compi\u00e8gne", "adresse": "rue du docteur Schweitzer", "commune": "Compi\u00e8gne", "region": "Hauts-de-France", "longitude_x": 2.79993, "latitude_y": 49.3999}, {"nom": "P\u00f4le formation de l'UIMM Bourgogne 21-71", "adresse": "6 all\u00e9e Andr\u00e9 Bourland", "commune": "Dijon", "region": "Bourgogne-Franche-Comt\u00e9", "longitude_x": 5.04484, "latitude_y": 47.3585}, {"nom": "Lyc\u00e9e professionnel Saint-Michel", "adresse": "32 rue du calvaire", "commune": "Saint-Laurent-sur-S\u00e8vre", "region": "Pays de la Loire", "longitude_x": -0.891622, "latitude_y": 46.9605}, {"nom": "Lyc\u00e9e Jean-Baptiste de La Salle", "adresse": "1 rue Neyret", "commune": "Lyon", "region": "Auvergne-Rh\u00f4ne-Alpes", "longitude_x": 4.83023, "latitude_y": 45.7717}, {"nom": "Centre de formation professionnelle- Groupe Saint Michel", "adresse": "39 rue Martin Peller", "commune": "Reims", "region": "Grand-Est", "longitude_x": 4.0133841, "latitude_y": 49.2467865}, {"nom": "Institut r\u00e9gional de formation sanitaire et sociale Auvergne-Rh\u00f4ne-Alpes - Croix-Rouge fran\u00e7aise - site de Lyon", "adresse": "115 avenue Lacassagne", "commune": "Lyon", "region": "Auvergne-Rh\u00f4ne-Alpes", "longitude_x": 4.8766955999999, "latitude_y": 45.7493665}, {"nom": "Institut du travail social Pierre Bourdieu", "adresse": "8 cours L\u00e9on B\u00e9rard", "commune": "Pau", "region": "Nouvelle-Aquitaine", "longitude_x": -0.371521, "latitude_y": 43.315}, {"nom": "Lyc\u00e9e g\u00e9n\u00e9ral et technologique Gerville R\u00e9ache", "adresse": "37 rue Am\u00e9d\u00e9e Fengarol", "commune": "Basse-Terre", "region": "Guadeloupe", "longitude_x": -61.722136, "latitude_y": 15.99813}, {"nom": "Lyc\u00e9e T\u00e9zenas du Montcel", "adresse": "14-16 place Girodet", "commune": "Saint-Etienne", "region": "Auvergne-Rh\u00f4ne-Alpes", "longitude_x": 4.38059, "latitude_y": 45.448}, {"nom": "Formation Fauvel Estillac", "adresse": "2 zone des Portes d'Estillac", "commune": "Estillac", "region": "Nouvelle-Aquitaine", "longitude_x": 0.57977000000005, "latitude_y": 44.172619}, {"nom": "Association musique exp\u00e9rience", "adresse": "23 rue du Couvent", "commune": "Ducey-Les Ch\u00e9ris", "region": "Normandie", "longitude_x": -1.2874303, "latitude_y": 48.61784}, {"nom": "Institut catholique d'arts et m\u00e9tiers - site de Lille - ICAM apprentissage", "adresse": "6 rue Auber", "commune": "Lille", "region": "Hauts-de-France", "longitude_x": 3.041396, "latitude_y": 50.63048}, {"nom": "Lyc\u00e9e Fabert", "adresse": "12 rue Saint-Vincent", "commune": "Metz", "region": "Grand-Est", "longitude_x": 6.17262, "latitude_y": 49.123}, {"nom": "ESCO Wesford Clermont-Ferrand", "adresse": "20 rue Barri\u00e8re de Jaude", "commune": "Clermont-Ferrand", "region": "Auvergne-Rh\u00f4ne-Alpes", "longitude_x": 3.08127, "latitude_y": 45.7741}, {"nom": "AFTEC Vannes", "adresse": "14 rue Anita Conti", "commune": "Vannes", "region": "Bretagne", "longitude_x": -2.77984, "latitude_y": 47.6681}, {"nom": "Nantes YNOV Campus", "adresse": "20 bd du G\u00e9n\u00e9ral de Gaulle", "commune": "Nantes", "region": "Pays de la Loire", "longitude_x": -1.5466998, "latitude_y": 47.1943155}, {"nom": "Lyc\u00e9e professionnel L\u00e9onard de Vinci", "adresse": "8 rue du Rempart", "commune": "Marseille", "region": "Provence-Alpes-C\u00f4te d'Azur", "longitude_x": 5.36523, "latitude_y": 43.2887}, {"nom": "Lyc\u00e9e polyvalent Emmanuel Mounier", "adresse": "6 avenue Marcelin Berthelot", "commune": "Grenoble", "region": "Auvergne-Rh\u00f4ne-Alpes", "longitude_x": 5.73034, "latitude_y": 45.1796}, {"nom": "Lyc\u00e9e g\u00e9n\u00e9ral et technologique Leconte de Lisle", "adresse": "3 all\u00e9e des \u00e9tudiants", "commune": "Saint-Denis", "region": "La R\u00e9union", "longitude_x": 55.470024347305, "latitude_y": -20.88773308163}, {"nom": "Lyc\u00e9e polyvalent Roland Garros", "adresse": "Rue Roland Garros", "commune": "Le Tampon", "region": "La R\u00e9union", "longitude_x": 55.520581, "latitude_y": -21.2754453}, {"nom": "CFA du pays d'Aix", "adresse": "200 rue Maurice Estrangin, Plan d'Aillane, Les Milles", "commune": "Aix-en-Provence", "region": "Provence-Alpes-C\u00f4te d'Azur", "longitude_x": 5.3692502, "latitude_y": 43.4976287}, {"nom": "Ecole Sup\u00e9rieure de Commerce et D\u00e9veloppement - 3A", "adresse": "4 rue Paul Bernies", "commune": "Toulouse", "region": "Occitanie", "longitude_x": 1.4137570322899, "latitude_y": 43.6108074}, {"nom": "Ecole sup\u00e9rieure de commerce d'Amiens", "adresse": "18 place Saint-Michel", "commune": "Amiens", "region": "Hauts-de-France", "longitude_x": 2.30287, "latitude_y": 49.8953},